"","Name","Longitude","Latitude","Row_ID","Group"
"1","BLK 231A CP",103.961166888274,1.3740662099265,1,1
"2","HOUGANG SWIM CPLX",103.887823572928,1.36940523361262,2,1
"3","AFT JLN TELAWI",103.908216897198,1.36468646431607,3,1
"4","AFT JOO CHIAT PL",103.909967265287,1.31454341089334,4,1
"5","OPP SBST ANG MO KIO DEPOT",103.848324211182,1.38563060886342,5,1
"6","OPP FUDU WALK P/G",103.836955739657,1.38978539225752,6,1
"7","CHIJ KATONG CON",103.917586017139,1.30717830683679,7,1
"8","OPP MOUNBATTEN STN",103.882955679184,1.30511774411619,8,1
"9","OPP TG KATONG RD STH P/G",103.897498015504,1.30115297203435,9,1
"10","OPP SELARANG PK DRUG REH.",103.980050660165,1.37082373429912,10,1
"11","BEF PASIR RIS AVE",103.946334492732,1.38038484929533,11,1
"12","ORCHARD PLAZA",103.841059400185,1.30071132776507,12,1
"13","OPP HILLBROOKS",103.762022073696,1.35893382945525,13,1
"14","AFT NEO TIEW RD",103.725488695579,1.43708752149617,14,1
"15","THE CRYSTAL TABERNACLE CH",103.774966328879,1.28985207147201,15,1
"16","BLK 269A",103.9633383535,1.36457092731584,16,1
"17","AFT SEMBAWANG SHOP CTR",103.824740022165,1.44082834581156,17,1
"18","WINSLAND HSE",103.84084687648,1.29986550584404,18,1
"19","BLK 835",103.93354623954,1.35081022581079,19,1
"20","BEF TEBAN GDNS RD",103.744563764383,1.31984793178928,20,1
"21","OPP YOUTH FLYING CLUB",103.86188357049,1.41464483914321,21,1
"22","FARRER RD MKT",103.806027137377,1.31624189375673,22,1
"23","SAFRA MT FABER",103.818008294862,1.27705005616327,23,1
"24","YIO CHU KANG INT",103.845600747781,1.38106843933013,24,1
"25","OPP THOMSON MED CTR",103.842107772871,1.3248009446871,25,1
"26","TAMPINES EAST STN EXIT D",103.955586078188,1.35765718461628,26,1
"27","OPP MARINA STH PIER STN",103.863059367411,1.27164433420994,27,1
"28","AFT UPP S'GOON RD",103.873899417408,1.34366449395345,28,1
"29","LP 30",103.785856946013,1.28585290980371,29,1
"30","OPP BLK 139A",103.843261057794,1.33626809856981,30,1
"31","AFT TUAS AVE 6",103.648970482445,1.32422443082699,31,1
"32","AFT LP 234",103.754568681893,1.41865193081871,32,1
"33","OPP THE NEXUS",103.787856112719,1.33463619389787,33,1
"34","AFT ANG MO KIO AVE 5",103.876499755477,1.37981846035458,34,1
"35","OPP BLK 155",103.839301745022,1.37616210061373,35,1
"36","OPP GOODWILL CT",103.927829931485,1.31296940595194,36,1
"37","BEF SEMBAWANG STN",103.821987064518,1.44842249532671,37,1
"38","MT ALVERNIA HOSP",103.836662968006,1.34101292552641,38,1
"39","OPP TRACK 14",103.726648460349,1.37437275005694,39,1
"40","AFT BEDOK STH AVE 3",103.944729173389,1.31614340864195,40,1
"41","BEF HONG KAH FLYOVER",103.719196869,1.35602639862782,41,1
"42","AFT SENGKANG WEST RD",103.870714490727,1.38951701434947,42,1
"43","BLK 318",103.902889855015,1.32821173374917,43,1
"44","AFT INNOVA PRI SCH",103.790092857572,1.42813384875973,44,1
"45","BLK 176",103.710326605958,1.34727720184267,45,1
"46","BLK 1003",103.814489313561,1.28366209485858,46,1
"47","BLK 139A",103.843568282207,1.33633592011946,47,1
"48","AFT CHANGI BIZ PK CRES",103.967817008631,1.33692475067967,48,1
"49","GALEN",103.783728060523,1.28626750680804,49,1
"50","NATL YOUTH COUNCIL",103.836158627108,1.3004127068963,50,1
"51","ITE COLLEGE CTRL",103.855821089631,1.37600902283183,51,1
"52","OPP CHATSWORTH RD",103.817135186117,1.2993098095448,52,1
"53","OPP VILLAGE TWRS",103.778139078684,1.31546831028084,53,1
"54","BLK 457",103.72110869761,1.35098329571604,54,1
"55","OPP TRACTOR RD",103.709807946977,1.32370603132319,55,1
"56","OPP BLK 188",103.910698365056,1.39992505916228,56,1
"57","OPP SIS BLDG",103.814496685995,1.2918729399584,57,1
"58","OPP KEE WEE HUP KEE",103.643666365109,1.33352610924415,58,1
"59","BLK 978",103.694291248311,1.3405514176502,59,1
"60","ST JOSEPH'S CH",103.853255046846,1.29777132630405,60,1
"61","BEF AYER RAJAH CRES",103.789446993346,1.29387477900304,61,1
"62","OPP BLK 178A",103.908852236268,1.38888209129291,62,1
"63","CYCLE & CARRIAGE",103.898446161962,1.33384021005371,63,1
"64","ALEXANDRA PT",103.80235877402,1.27707118587212,64,1
"65","OPP OLD POLICE ACAD",103.839747918442,1.33022680134018,65,1
"66","M.C PACKAGING PTE LTD",103.677528637026,1.32229737027658,66,1
"67","JUYING PR SCH",103.688711106422,1.33889727579326,67,1
"68","OPP THE GREENWICH",103.870445465911,1.38801054245266,68,1
"69","ALEXANDRA RETAIL CTR",103.801823516512,1.27463235694269,69,1
"70","OPP ALEXANDRA RETAIL CTR",103.802160837533,1.27449706358823,70,1
"71","OPP W'LANDS MART",103.798112693483,1.44649118734002,71,1
"72","BEF ANG MO KIO LIB",103.84500127807,1.37624819114441,72,1
"73","BLK 630",103.801695318031,1.43445133812208,73,1
"74","ASIAWIDE IND BLDG",103.887063854209,1.33765962603804,74,1
"75","BUANGKOK STN EXIT B",103.893260544731,1.3832757556486,75,1
"76","OPP SEAGATE",103.807181002271,1.44599612644309,76,1
"77","BEF OLD AIRPORT RD",103.890553997333,1.30862995467762,77,1
"78","OPP BLK 458",103.896887072037,1.37777517086982,78,1
"79","AFT TAGORE DR",103.822825885793,1.38516811874422,79,1
"80","BAN JOO",103.736054119499,1.30630750708109,80,1
"81","BLK 920",103.687821584901,1.33969521737914,81,1
"82","CHAI CHEE IND PK",103.922434753573,1.32262846150238,82,1
"83","BLK 617",103.76292386844,1.38537768333874,83,1
"84","BEF SIEMENS CTR",103.870801344781,1.32841718252123,84,1
"85","MIDVIEW BLDG",103.756895325656,1.33982886160197,85,1
"86","BLK 347",103.781183314633,1.4330938856237,86,1
"87","ST ANNE'S CH",103.901302007651,1.39302747106464,87,1
"88","YUSOF ISHAK HSE",103.774373264814,1.29892057046724,88,1
"89","BEF SENGKANG EAST AVE",103.890756270813,1.38538702343608,89,1
"90","BLK 120",103.863699314086,1.33563695030293,90,1
"91","SULTAN PLAZA",103.861645647564,1.30285013617619,91,1
"92","BLK 730",103.762640701899,1.30492292460802,92,1
"93","BLK 683A",103.802724678443,1.43970524944259,93,1
"94","COLD STORAGE JELITA",103.785907158141,1.31787824422438,94,1
"95","OPP LEA HIN HARDWARE FTY",103.807369680088,1.29091794913851,95,1
"96","OPP MARSILING STN",103.774600053167,1.43204737945475,96,1
"97","AIRPORT POLICE STN",103.981847980772,1.34218833343735,97,1
"98","AZTECH BLDG",103.892093413073,1.3270232839167,98,1
"99","CORPORATION PR SCH",103.707776671755,1.35222520222092,99,1
"100","BLK 334",103.747806434563,1.36513089647521,100,1
"101","OPP MERA TERR P/G",103.962914523282,1.34691084460774,101,1
"102","OPP NGEE ANN CITY",103.834256216241,1.30213741789128,102,1
"103","OPP BLK 713",103.938596533735,1.38268713334254,103,1
"104","BLK 12",103.778421960969,1.439993688345,104,1
"105","OPP QUEENS",103.805725633052,1.29237991130604,105,1
"106","LAYAR STN EXIT A / BLK 417A",103.880041402094,1.39197930854831,106,1
"107","AFT BEDOK RD",103.950738432748,1.32935985176938,107,1
"108","BLK 988B",103.876869279803,1.37987709428012,108,1
"109","BLK 52",103.812505112169,1.28836233297448,109,1
"110","OPP BLK 482",103.959794484308,1.37345824466153,110,1
"111","OPP XINMIN PR SCH",103.882369495409,1.37066920251274,111,1
"112","PEBBLE BAY",103.872279418203,1.29720223191477,112,1
"113","OPP CEVA LOGISTICS",103.703714656436,1.31365922855247,113,1
"114","AFT TRACK 13",103.700584620488,1.41605744943487,114,1
"115","BLK 239",103.770823663748,1.38020875904597,115,1
"116","GRACE INDEPENDENT CH",103.955556210611,1.33653504023449,116,1
"117","BLK 166",103.802487251757,1.29112738107154,117,1
"118","TAMPINES STN/INT",103.946124669435,1.35376601853643,118,1
"119","AFT CORFE PL",103.859840503128,1.36065284459789,119,1
"120","PEC LTD",103.693836246964,1.30758085861962,120,1
"121","BLK 527",103.854250391642,1.37235817860932,121,1
"122","BLK 536",103.716445306286,1.35003295387721,122,1
"123","BLK 148",103.955907530969,1.34649013098468,123,1
"124","CONTAINERS PRINTERS",103.684925088318,1.32789578194831,124,1
"125","OPP BT TIMAH PLAZA",103.779438246202,1.34000038344715,125,1
"126","OPTO-PHARM",103.644881471362,1.33392082951905,126,1
"127","BLK 808",103.786876774775,1.44253502162843,127,1
"128","AFT BT MERAH CTRL",103.818521320035,1.28110386680072,128,1
"129","OPP PARISH OF CHRIST CH",103.847180541668,1.31181143525639,129,1
"130","ST ANTHONY'S PR SCH",103.749226146277,1.36379437586825,130,1
"131","GAMBIR RIDGE",103.875702379543,1.34416629850898,131,1
"132","AFT BLK 1",103.775495392092,1.44147080204051,132,1
"133","BLK 747A CP",103.795645041729,1.44362506668146,133,1
"134","BLK 550",103.926650455675,1.33291184979661,134,1
"135","OPP BLK 32",103.925096130519,1.32294428249918,135,1
"136","FARMWAY STN EXIT A",103.888954482016,1.39736371416239,136,1
"137","GRAND PARK CITY HALL",103.849832034258,1.29270542051579,137,1
"138","BLK 17A",103.857095450463,1.33636658785802,138,1
"139","BLK 601",103.76462511715,1.30467500331043,139,1
"140","FARMWAY STN EXIT B",103.889758295951,1.39696814006453,140,1
"141","BLK 429A CP",103.740938859619,1.383287536395,141,1
"142","OPP MANDAI CAMP 2",103.774556299891,1.41056564809774,142,1
"143","OPP INTL BUSINESS PK",103.744839252946,1.3276998566508,143,1
"144","Bef Blk 471B",103.900716383469,1.37750756735252,144,1
"145","QUEENS CONDO",103.807057934856,1.29294159265846,145,1
"146","BLK 311A",103.884333288363,1.39052399471739,146,1
"147","OPP THE FISHERMAN CH",103.80319752746,1.29956882846909,147,1
"148","AFT ROCHALIE DR",103.819720234557,1.30250544576186,148,1
"149","STAMFORD TYRE",103.686526750131,1.32304169446569,149,1
"150","AFT TRACK 22",103.728542093729,1.35402416834413,150,1
"151","BEF YISHUN AVE 6",103.851396970394,1.4229834296552,151,1
"152","STADIUM STN",103.875440743317,1.30158196492199,152,1
"153","NAVAL BASE PR SCH",103.839473495104,1.41589252783511,153,1
"154","NEWTON FC",103.840219516874,1.31208545691735,154,1
"155","BLK 722",103.799609373061,1.44570134001273,155,1
"156","OPP RAFFLES INSTN",103.847104963626,1.34697261801388,156,1
"157","BLK 241",103.839913563009,1.43224687378029,157,1
"158","MARINA STH PIER STN",103.862930634475,1.27122526272156,158,1
"159","OPP ANG MO KIO CMTY HOSP",103.840597703654,1.3833413696082,159,1
"160","GOLDEN MILE CPLX",103.864977875562,1.30315561147307,160,1
"161","OPP BLK 106",103.782744206187,1.43690152046306,161,1
"162","OPP BT VIEW SEC SCH",103.752056465684,1.34479693198784,162,1
"163","AFT YIO CHU KANG RD",103.828515400834,1.37675081811271,163,1
"164","OPP BLK 201",103.837802823316,1.43016407927411,164,1
"165","AFT KG EUNOS",103.906349578198,1.31777109721841,165,1
"166","AFT TOH TUCK TERR",103.768248871218,1.33943763548258,166,1
"167","CATHOLIC JC",103.834462736072,1.32586784354824,167,1
"168","KALLANG STN / OPP BLK 2C",103.871525595764,1.31257856261764,168,1
"169","S.A. DEAF",103.87973541988,1.30754179323408,169,1
"170","BLK 512",103.76002069151,1.30967008369149,170,1
"171","BLK 73",103.851476439634,1.33395057840172,171,1
"172","BLK 367",103.719235778935,1.33832489152634,172,1
"173","BLK 45",103.924664710337,1.32916212707469,173,1
"174","AFT LOR 1 GEYLANG",103.873196336384,1.31249733446063,174,1
"175","BLK 713",103.938558975889,1.38229537507294,175,1
"176","OPP GARLICK VILLE",103.793051727684,1.32563013197848,176,1
"177","OPP LAKEPOINT CONDO",103.716021534397,1.3401479520763,177,1
"178","BLK 416",103.725528116638,1.35235797301533,178,1
"179","OPP SP SMA",103.78210012855,1.3095003556581,179,1
"180","BLK 124",103.738561540841,1.33453806979408,180,1
"181","OPP W'LANDS SUNNY FOOD",103.810028430318,1.4625469991625,181,1
"182","OPP MANDAI CD TRG VILLAGE",103.76136959901,1.41159980453109,182,1
"183","BEF TUAS AVE 10",103.649809975335,1.33223677798916,183,1
"184","OPP BLK 872",103.789267477989,1.44460542506989,184,1
"185","OPP BLK 203",103.846918939293,1.35448990487463,185,1
"186","BLK 446",103.957174918751,1.37026334446221,186,1
"187","AFT DAIRY FARM RD",103.775310165368,1.36581477505295,187,1
"188","AFT SOON LEE RD",103.703750279901,1.32858857935967,188,1
"189","OPP BLK 853",103.934457839681,1.35332335240825,189,1
"190","BEF LOR BAKAR BATU",103.87486420043,1.3262317142966,190,1
"191","OPP MEADOWS /@ PEIRCE",103.827588356456,1.37906039493692,191,1
"192","AFT WOLSKEL RD",103.871618980558,1.34689488309165,192,1
"193","LP 52",103.827091077667,1.34129624177808,193,1
"194","HSE 189",103.896488384256,1.29894816012091,194,1
"195","BEF CHOA CHU KANG MKT",103.74403600061,1.37644640203394,195,1
"196","AFT SENNET RD",103.937447206589,1.31447860499917,196,1
"197","OPP LOYANG TOWNHOUSE",103.964373093357,1.37928955361689,197,1
"198","OPP PARKWAY PARADE",103.905036957812,1.30273470025445,198,1
"199","SUNTEC CONVENTION CTR",103.857869315001,1.29323952995999,199,1
"200","HILLBROOKS",103.761951000471,1.35867116490783,200,1
"201","BEF KALLANG PL",103.865914532618,1.31430714017261,201,1
"202","RAFFLES COUNTRY CLUB",103.651620493692,1.33465162196796,202,1
"203","OPP DEFU AVE 2",103.900932160309,1.3626619990943,203,1
"204","OPP BLK 120",103.780564732364,1.43976962493019,204,1
"205","BLK 343",103.900517440382,1.32671458141282,205,1
"206","BLK 3024",103.897065895378,1.32886582800045,206,1
"207","WACKER CHEMICALS",103.974201760611,1.37581399735197,207,1
"208","MOUNTBATTEN STN EXIT B",103.883420448333,1.30520000147504,208,1
"209","OPP JLN BERSERI",103.704235641135,1.37239499439862,209,1
"210","MACRITCHIE RESERVOIR",103.836015286631,1.34226084713092,210,1
"211","BLK 343",103.96106860761,1.35209164195442,211,1
"212","BET BLKS 502/503",103.766048928832,1.38376074827354,212,1
"213","OPP LOYANG WAY 4 / SOXAL",103.978708267329,1.37852056367137,213,1
"214","BEF NEW LOYANG LK",103.968378371977,1.36725139601704,214,1
"215","BLK 25",103.836874529832,1.35497420062478,215,1
"216","BLK 762",103.697320723977,1.34940032955684,216,1
"217","BLK 239",103.747587238923,1.37923515341061,217,1
"218","AFT ANG MO KIO IND PK 2",103.868590382794,1.37871967507037,218,1
"219","OPP COMFORT DRIVING CTR",103.897906719733,1.33632765100404,219,1
"220","AFT TPE",103.872450423093,1.3997761683768,220,1
"221","BLK 210",103.712462782874,1.34755716620113,221,1
"222","BCA ACAD",103.858785678955,1.34355354942561,222,1
"223","BLK 827",103.69287714738,1.34572405485795,223,1
"224","AFT BEACH RD",103.855793988398,1.29694694111478,224,1
"225","OPP PUNGGOL CC",103.892912843598,1.37440863368372,225,1
"226","SWANSON PLASTICS",103.752785033118,1.30146185917338,226,1
"227","LIEN TWRS",103.805355171643,1.3100469453936,227,1
"228","AFT KIM YAM RD",103.839389188239,1.2959625850947,228,1
"229","AFT TAMPINES AVE 9",103.930777194546,1.3614185066524,229,1
"230","AFT WESTWOOD AVE",103.701150022807,1.3505401267322,230,1
"231","OPP BLOXHOME DR",103.861047488328,1.36416052067511,231,1
"232","CLARIANT S'PORE",103.71632628678,1.33189903989247,232,1
"233","BLK 651",103.938212198798,1.37946470946573,233,1
"234","OPP HOUGANG G. SHOP MALL",103.888651076028,1.37972589321955,234,1
"235","BLK 354",103.852409561639,1.36390574020624,235,1
"236","YIO CHU KANG AMENITY CTR",103.871651675446,1.37574030508904,236,1
"237","AFT UPP THOMSON RD",103.816858041889,1.40240336631806,237,1
"238","YONG NAM",103.621921521403,1.29373882555855,238,1
"239","AFT LORNIE WALK",103.819458024644,1.33765951737354,239,1
"240","BEF BT BATOK EAST AVE 6",103.766927784608,1.34641892807374,240,1
"241","BLK 609",103.796003400615,1.4359146589097,241,1
"242","BLK 911",103.883221463304,1.37911654511149,242,1
"243","BLK 32",103.925153726836,1.32338518018357,243,1
"244","UPP EAST COAST TER",103.952621244573,1.31776970955974,244,1
"245","BLK 227",103.858020256635,1.33973269909989,245,1
"246","AFT CASHEW TERR",103.766725883654,1.37120786591194,246,1
"247","OPP BLK 695",103.708053453617,1.34306110381971,247,1
"248","OPP LUXE VILLE",103.776918596374,1.28918649544284,248,1
"249","OPP BLK 266",103.950630713015,1.3517130988029,249,1
"250","AFT TOH TUCK CRES",103.76446952904,1.33729369721493,250,1
"251","OPP BLK 71",103.787468808723,1.29642590825579,251,1
"252","BEF NAM LEONG CO PTE LTD",103.666207825854,1.29722049951009,252,1
"253","OPP ST. MARGARET'S SEC SCH",103.810505250497,1.31938047763033,253,1
"254","OPP COMFORT TEST CTR",103.894746834056,1.33658657133457,254,1
"255","BEF BLK 717",103.697159885868,1.34252066138593,255,1
"256","OPP CHANGI WOMEN'S PRISON",103.970406743158,1.36049093037572,256,1
"257","OPP BLK 241",103.892578813758,1.35678496037927,257,1
"258","BLK 913",103.884461639541,1.37844906460062,258,1
"259","BLK 857",103.696246167562,1.34844728485374,259,1
"260","BLK 741",103.832644060945,1.43034220705226,260,1
"261","KALLANG STN",103.871345085224,1.31112031913446,261,1
"262","BLK 604A",103.934805447239,1.36150035528068,262,1
"263","XINMIN PR SCH",103.882451214068,1.37093273614175,263,1
"264",NA,103.784944629082,1.44850303137343,264,1
"265","BLK 328",103.81963446096,1.44591206190759,265,1
"266","BLK 704",103.695291560627,1.34054976787286,266,1
"267","AFT YIO CHU KANG RD",103.87225252063,1.36295550553429,267,1
"268","AFT NEO TIEW RD",103.702913989611,1.42077483186372,268,1
"269","OPP SANTA FE MANSIONS",103.889505274933,1.30046374314229,269,1
"270","BLK 82",103.856328555726,1.32347724128311,270,1
"271","OPP LABRADOR PK STN",103.800670238931,1.27330707721392,271,1
"272","OPP BLK 601C",103.934523716162,1.36145131484651,272,1
"273","THE REGENT S'PORE",103.825466081079,1.30495483655753,273,1
"274","OPP BLK 183",103.762733261549,1.38054737714702,274,1
"275","AFT BUGIS STN EXIT C",103.85508147143,1.29952153094287,275,1
"276","BLK 713",103.922521226248,1.33741128244423,276,1
"277","BLK 946A",103.880616274503,1.37489684468743,277,1
"278","BLK 140",103.743718008269,1.35153408814879,278,1
"279","OPP BUGIS STN EXIT C",103.855193257484,1.30012230180884,279,1
"280","AFT YISHUN AVE 6",103.851291616877,1.42329956152477,280,1
"281","BLK 426",103.738771232677,1.38083317760221,281,1
"282","OPP KINGSWEAR AVE",103.866539612162,1.36716747606451,282,1
"283","OPP PREMIER MILK PTE LTD",103.70797250364,1.33038783399731,283,1
"284","AFT JURONG TOWN HALL RD",103.742913905803,1.32388383826662,284,1
"285","AFT JLN BUROH PERINDU",103.919288602679,1.31073407302701,285,1
"286","BLK 160",103.908432654429,1.38718801962984,286,1
"287","OPP BLK 945",103.940159313981,1.35186666087369,287,1
"288","OPP BLK 125",103.88115689497,1.32326532663529,288,1
"289","OPP BLK 5",103.855376621931,1.33824513986996,289,1
"290","OPP PACIFIC TECH CTR",103.811284122684,1.28596632464929,290,1
"291","OPP BLK 350",103.731006583793,1.34362509465675,291,1
"292","BLK 501",103.849318758732,1.34822283392525,292,1
"293","TG KATONG FLYOVER",103.89674636355,1.29606455556822,293,1
"294","SG BULOH WETLAND RESERVE",103.72982056969,1.4451338923024,294,1
"295","BLK 200B",103.892561642129,1.38678396376164,295,1
"296","BEF TUAS TER",103.638293237553,1.34381795066308,296,1
"297","AFT LOR 14 GEYLANG",103.879908536084,1.31012529634757,297,1
"298","OPP S.A. DEAF",103.880047827526,1.30699577823971,298,1
"299","BLK 131",103.851313367014,1.34531951899299,299,1
"300","BLK 424A CP",103.819240693575,1.45335979790386,300,1
"301","BEF ANG MO KIO AVE 1",103.82795334743,1.36491729896722,301,1
"302","OPP LIAN AIK SIONG MACHINERY",103.802823037083,1.46363688903059,302,1
"303","BLK 640",103.939913057907,1.3759553152727,303,1
"304","OPP BLK 555",103.95168197567,1.36837406903436,304,1
"305","AFT TOH CL",103.969909339265,1.3634276122462,305,1
"306","OPP BALESTIER PT",103.852627233125,1.32301807195893,306,1
"307","MAPLETREE BUSINESS CITY",103.79849348204,1.27420995414935,307,1
"308","BLK 242",103.756169456259,1.35119240846023,308,1
"309","BLK 232",103.889025690215,1.35884601654207,309,1
"310","BLK 532",103.854865451256,1.37429064569193,310,1
"311","OPP BLK 101",103.826522056391,1.43129013575075,311,1
"312","BLK 263",103.706559977313,1.34521467547834,312,1
"313","BLK 442",103.958189952002,1.36869220915688,313,1
"314","AFT TUAS CRES",103.64969057223,1.31897857727361,314,1
"315","OPP BLK 56",103.883190107656,1.31079800453239,315,1
"316","OPP S'PORE BIBLE COLLEGE",103.813969239243,1.3253641513704,316,1
"317","OPP ASIA IND GASES",103.665902539539,1.30358997275031,317,1
"318","S'GOON STN EXIT F",103.870889220221,1.35107328791505,318,1
"319","PB PACKAGING SYSTEMS",103.714598272569,1.33410229427071,319,1
"320","OPP BLK 507",103.790622819275,1.43130362501914,320,1
"321","BEF TUAS FLYOVER",103.664750241851,1.32420171784593,321,1
"322","AFT TG KLING RD",103.702094778821,1.31385545886825,322,1
"323","BLK 515",103.789878659538,1.43507401783788,323,1
"324","BLK 185",103.745177360236,1.34715300734735,324,1
"325","BLK 516",103.929852992995,1.33062336998207,325,1
"326","OPP VARSITY PK",103.766868123173,1.29392505581922,326,1
"327","OPP BLK 213",103.7124028829,1.34978071912281,327,1
"328","OPP CANBERRA DR",103.825330669255,1.44600830635546,328,1
"329","BLK 755",103.700960159254,1.3480036376901,329,1
"330","RAFFLES INSTN",103.846583176841,1.34614745441281,330,1
"331","OPP RIVER VALLEY HIGH SCH",103.708109021348,1.34482617139575,331,1
"332","BLK T PANDAN LIGHT IND PK",103.752874582118,1.31252951127896,332,1
"333","Opp EASB",103.845954329203,1.32750697911127,333,1
"334","BLK 26",103.755416479977,1.37713259584981,334,1
"335","OPP SIM HQ",103.776735982711,1.32801488861257,335,1
"336","ZION BIBLE PRESBY CH",103.854582911314,1.34716142689852,336,1
"337","BEF PIONEER RD",103.637090143326,1.32904788089672,337,1
"338","BLK 311",103.822803916674,1.44667088886771,338,1
"339","AFT KRANJI LK",103.743192346795,1.43837104506012,339,1
"340","OPP BLK 288D",103.744125375612,1.34056732464589,340,1
"341","BLK 172",103.889855488408,1.35083935195334,341,1
"342","BLK 821",103.694129681639,1.347214245829,342,1
"343","SHRIRO HSE",103.811611152988,1.28814778933604,343,1
"344","BEF KATONG PO",103.896768888635,1.30378626197991,344,1
"345","AFT SG KADUT DR",103.748613490394,1.43561254328515,345,1
"346","AFT BLK 353",103.786259167742,1.43190729303277,346,1
"347","BLK 290H",103.758277600403,1.34414115857194,347,1
"348","J GATEWAY",103.742732572317,1.33567827077594,348,1
"349","BEF CANBERRA DR",103.825581736733,1.4465079239615,349,1
"350","OPP CANBERRA DR",103.825138561515,1.446488779952,350,1
"351","BLK 118",103.812725857573,1.28129951654776,351,1
"352","BLK 668D",103.702624191032,1.34091296012747,352,1
"353","BLK 986B",103.879735366229,1.38244753862793,353,1
"354","REGENT HTS",103.755498332578,1.35248487713956,354,1
"355","LLOYD LEAS WORK REL CAMP",103.975249846698,1.36510552064595,355,1
"356","BLK 502",103.946526855118,1.37564620042644,356,1
"357","BET BLKS 232 / 233",103.961935843913,1.37487388121327,357,1
"358","AFT QUEEN'S AVE",103.831013995374,1.45527476400954,358,1
"359","AFT CEMY OFFICE",103.694664861315,1.37201124851394,359,1
"360","OPP HQ 5TH SIB CAMP I",103.697354965709,1.3806192720719,360,1
"361","OPP BLK 204 CP",103.895112848661,1.38865961743144,361,1
"362","OPP AL-MUTTAQIN MQUE",103.845324665597,1.37015830383217,362,1
"363","BLK 490",103.727283523105,1.34980321306304,363,1
"364","AFT ALJUNIED STN",103.883444561794,1.31533382525929,364,1
"365","NIRVANA MEMORIAL GDN",103.688098948628,1.37039595380292,365,1
"366","OPP STH PT",103.841934938653,1.27322946669306,366,1
"367","SEAGATE",103.807239251368,1.44630498086806,367,1
"368","BLK 105",103.853959867651,1.32814986067014,368,1
"369","OPP S'GOON STN EXIT F",103.871219394182,1.35029003102391,369,1
"370","OPP BRADDELL VIEW",103.839485518273,1.34418026221107,370,1
"371","BEF TUAS AVE 5",103.658827748049,1.31739653578574,371,1
"372","FERNVALE STN / BLK 439A",103.877753739851,1.39153739217697,372,1
"373","OPP CHEVIOT HILL",103.92247905895,1.31688474737891,373,1
"374","BLK 1004",103.847183999494,1.34365420147189,374,1
"375","OPP MOHD SALLEH MQUE",103.87708949307,1.31213571770831,375,1
"376","ALEXANDRA HOSP",103.802450122996,1.28606333778447,376,1
"377","BLK 358A CP",103.816827089865,1.44875840738821,377,1
"378","CDAC BLDG",103.894263155242,1.31287457979397,378,1
"379","BEF CANTONMENT RD",103.841319559779,1.27274059792302,379,1
"380","OPP EDWARDS LIFESCIENCE",103.967678273745,1.34672596049726,380,1
"381","COUNTRYSIDE EST",103.838805926725,1.39095710001132,381,1
"382","OPP HIGH ST CTR",103.848832677326,1.2897576686932,382,1
"383","OPP KUO CHUAN PRESBY SCH",103.85391562865,1.34938510188483,383,1
"384","OPP CROWHURST DR",103.864618568616,1.36128734773224,384,1
"385","AFT REGENT MOTORS",103.898448891759,1.33361856858532,385,1
"386","OPP BLK 643",103.695535755346,1.33834514739888,386,1
"387","DIEPPE BARRACKS",103.824533503043,1.42003228950991,387,1
"388","RANGGUNG STN EXIT A",103.897778314391,1.38382044506971,388,1
"389","BET BLKS 72/74",103.907652801095,1.30421701124639,389,1
"390","18 WOODSVILLE",103.868490559292,1.32963724850655,390,1
"391","BLK 657",103.749728079869,1.40014039409317,391,1
"392","AFT LOR J TELOK KURAU",103.907120886682,1.31271919882551,392,1
"393","OPP NYEE PHOE GROUP",103.727957306324,1.44060955398425,393,1
"394","CISCO RECALL",103.720513299914,1.32670641127078,394,1
"395","BLK 260",103.841696988498,1.35957677943361,395,1
"396","OPP ST. THERESA'S HOME",103.838802149293,1.34581926344872,396,1
"397","BLK 151",103.912062866993,1.33601281343286,397,1
"398","BET BLKS 544/546",103.892694272453,1.37830136978195,398,1
"399","AFT VIEW RD",103.788960270255,1.45154708198151,399,1
"400","FLAME TREE PK",103.8286638086,1.3607671888062,400,1
"401","LAKESIDE STN",103.720048635633,1.34423531062098,401,1
"402","YI XIU FTY BLDG",103.876642871291,1.31382086937268,402,1
"403","CTRL LIB",103.772457120571,1.29654357681973,403,1
"404","AFT TUAS AVE 16",103.638906855827,1.31853301255548,404,1
"405","OPP DARUL MAKMUR MQUE",103.833651399454,1.43671722486425,405,1
"406","OPP SEMBAWANG SEC SCH",103.816355246027,1.44481850026044,406,1
"407","SP SMA",103.781289739299,1.30956786504129,407,1
"408","BLK 3014",103.950238812603,1.3351155028492,408,1
"409","OPP BLK 106",103.891445679779,1.35379425919697,409,1
"410","OPP BLK 137",103.776969235273,1.43888176828983,410,1
"411","OPP BLK 713",103.826555565102,1.42755954557091,411,1
"412","BEF MANDAI LAKE RD",103.779610207169,1.41056057638357,412,1
"413","OPP YEW TEE STN",103.747825928196,1.39733579886946,413,1
"414","OPP BLK 171",103.766966870235,1.37872840150514,414,1
"415","AFT PIONEER RD",103.637253389004,1.32874248365651,415,1
"416","BEF ANG MO KIO AVE 10",103.854287800609,1.35716765068797,416,1
"417","AYER RAJAH IND EST",103.785701499339,1.29771761719987,417,1
"418","OPP CIVIL DEFENCE ACAD",103.693328916819,1.36560452176025,418,1
"419","BLK 875",103.790082865817,1.44235654666719,419,1
"420","OPP BLK 66",103.869760404492,1.31993772424701,420,1
"421","OPP BLK 217",103.754180436652,1.34632614003068,421,1
"422","BLK 241",103.743615969422,1.34160223496045,422,1
"423","THOMSON GR",103.836461849641,1.38484500262647,423,1
"424","BLK 401",103.944801758487,1.3568857099003,424,1
"425","BLK 323B",103.893084773118,1.39210193336987,425,1
"426","OPP GLOBAL LOGISTICS CTR",103.963579913366,1.32914885361498,426,1
"427","AFT PERPETUAL SUCCOUR CH",103.91800658466,1.32076551171847,427,1
"428","OPP BLK 500A",103.945698292823,1.37707480261025,428,1
"429","BEF DEFU AVE 2",103.902134434313,1.36241654135676,429,1
"430","OPP WEST BAY RESORT CONDO",103.767045318031,1.29905136769137,430,1
"431","FABER GDN",103.828243499736,1.36405423217914,431,1
"432","BET BLKS 139/140",103.769266528568,1.37581949686852,432,1
"433","WATERFRONT ISLE",103.927414451247,1.33896234844625,433,1
"434","BEF JLN MARIAM",103.967464442673,1.36325441334623,434,1
"435","BLK 146",103.774062343991,1.43632568135168,435,1
"436","BT BATOK SWIM CPLX",103.748361701725,1.34501674749629,436,1
"437","OPP KHATIB CAMP",103.830203867791,1.42360663424128,437,1
"438","ASIATIC AGRICULTURAL IND",103.672278820019,1.32001167743083,438,1
"439","NEW TECH PK",103.861850213261,1.35103150696872,439,1
"440","OPP EUNOS TECHNOLINK",103.901200201539,1.33273188951532,440,1
"441","OPP JURONG ABATTOIR",103.722739996837,1.31343783558369,441,1
"442","BET BLKS 50/51",103.73758239659,1.32033013003659,442,1
"443","OPP BEDOK REFORM TRG CTR",103.936530158388,1.34078930095331,443,1
"444","AFT SHIPYARD RD",103.697101945876,1.31015107266451,444,1
"445","BLK 834",103.889472967639,1.36997213549583,445,1
"446","AFT IRRAWADDY RD",103.844169291913,1.32648713875356,446,1
"447","Aft Jln Buroh",103.696014053995,1.31336033174263,447,1
"448","BLK 356",103.845562370803,1.42506084882669,448,1
"449","BLK 217",103.754611844881,1.34646113936057,449,1
"450","OPP CP D3",103.924146311622,1.30510596170794,450,1
"451","SUPER CONTINENTAL",103.638154059047,1.33877519083084,451,1
"452","NORTHTECH",103.798720634316,1.45591819493571,452,1
"453","PASIR VIEW PK",103.787020918538,1.27817090454262,453,1
"454","FARRER RD STN EXIT A",103.80758010104,1.31719057424286,454,1
"455","BUGIS CUBE",103.85552228966,1.29821576366776,455,1
"456","ST. PATRICK'S SCH",103.917629788553,1.3075174435815,456,1
"457","AFT PADANG JERINGAU",103.867261489459,1.30975743667176,457,1
"458","OPP BLK 489A",103.74010280799,1.37512267742318,458,1
"459","BLK 172",103.94440712361,1.31983663252814,459,1
"460","BT BATOK HME FOR THE AGED",103.743620918173,1.36179080124015,460,1
"461","BLK 489A",103.740367415054,1.3752502387371,461,1
"462","OPP BLK 195",103.860398333359,1.32998515796452,462,1
"463","DHOBY GHAUT STN",103.845372642623,1.29931351282214,463,1
"464","OPP BLK 402",103.772251498164,1.43230409900984,464,1
"465","OPP TRACK 18",103.733344840274,1.3503851288052,465,1
"466","BLK 355",103.898327112171,1.37246132513414,466,1
"467","OPP BRITISH AMERICAN TOBACCO",103.802941211311,1.45779845589955,467,1
"468","BEF WINDSOR PK RD",103.828802414186,1.35721764185209,468,1
"469","BEF FRANKEL DR",103.915942233305,1.31729248130234,469,1
"470","AFT DUNBAR WK",103.918679890203,1.31070038385874,470,1
"471","GOVT CHALETS",103.981708549429,1.39140351082287,471,1
"472","BOON KENG STN / BLK 102",103.861879879011,1.32016467954194,472,1
"473","BEF GEYLANG BAHRU STN",103.87015771937,1.32045002723874,473,1
"474","OPP BLK 314",103.842039894036,1.43207938320398,474,1
"475","OPP SELETAR CAMP",103.873565306713,1.41144355784082,475,1
"476","SIMS VILLE",103.890378751206,1.31661547884768,476,1
"477","DOWNTOWN EAST",103.953942631648,1.37536116166539,477,1
"478","BLK 227A",103.893339072924,1.40375798379081,478,1
"479","OPP BLK 113",103.750807859559,1.37744772874964,479,1
"480","BLK 512",103.889290341361,1.37125224426476,480,1
"481","OPP HAW PAR VILLA STN",103.781788875839,1.28284018567385,481,1
"482","PLANT ENGRG",103.694512672178,1.30778450442052,482,1
"483","AFT GUL AVE",103.670684904732,1.31436775803789,483,1
"484","BEF PENJURU WK",103.735892955362,1.31785845337496,484,1
"485","AYER RAJAH TELECOMS",103.777892602732,1.30750846379144,485,1
"486","OPP BLK 305 CP",103.887548015009,1.38815992394676,486,1
"487","BLK 347",103.732000187047,1.34541845750691,487,1
"488","YOUTH FLYING CLUB",103.862097100596,1.41440551019058,488,1
"489","BRAS BASAH CPLX",103.852976648967,1.29693992064498,489,1
"490","BLK 402",103.744179141442,1.36494931521331,490,1
"491","BEF FIRST LOK YANG RD",103.693916835042,1.32766650762894,491,1
"492","AFT RIVERSIDE RD",103.777251654291,1.44614527032484,492,1
"493","SHENTON WAY TER",103.848940552601,1.2731265186419,493,1
"494","JURONG ISLAND CHECKPT",103.711170900363,1.31017596456935,494,1
"495","CRESCENDO BLDG",103.926417870724,1.31294519703901,495,1
"496","OPP GLOBALFOUNDRIES",103.764092012001,1.43668098852412,496,1
"497","AFT ORCHARD BLVD",103.829979060033,1.30222665853788,497,1
"498","OPP CHUNG CHENG HIGH SCH",103.8382596508,1.41943481134432,498,1
"499","BLK 506",103.761364832109,1.31302342956993,499,1
"500","OPP PUB RECREATION CLUB",103.867430166421,1.34373828101261,500,1
"501","JACKSON SQ",103.849755455358,1.33688296442615,501,1
"502","OPP MARITIME HSE",103.841064053327,1.27553271976874,502,1
"503","BLK 68",103.853654602618,1.33453590392377,503,1
"504","OPP BLK 51",103.737061947006,1.32023352166942,504,1
"505","BLK 794",103.831834666015,1.42003487424359,505,1
"506","OPP KHATIB STN EXIT D",103.83299638485,1.41867508662625,506,1
"507","BLK 51 CP",103.827676993576,1.2904027858127,507,1
"508","BLK 858",103.83829014363,1.41778919093157,508,1
"509","HQ 5TH SIB CAMP I",103.697070655107,1.37985777326175,509,1
"510","OPP CASAFINA / TEMASEK JC",103.933042589917,1.31668188045233,510,1
"511","BLK 526",103.929342550703,1.33384198641498,511,1
"512","NAVAL BASE SEC SCH",103.831770446058,1.41971724425801,512,1
"513","AFT JURONG WEST ST 93",103.693065408132,1.33474604248028,513,1
"514","MAXWELL RD FC",103.844672903605,1.28105062386771,514,1
"515","OPP CHANGI BEACH CP 5",103.995843562411,1.38960660148753,515,1
"516","AFT FOURTH CHIN BEE RD",103.719935356962,1.33141700344272,516,1
"517","OASIS STN EXIT B / BLK 617D",103.912793791144,1.40208273929167,517,1
"518","AFT QUEENSTOWN NPC HQ",103.802240386967,1.28944903463681,518,1
"519","KEMBANGAN STN",103.913636604825,1.3217557696087,519,1
"520","BEF MARIAM WALK",103.968615803401,1.35928019723092,520,1
"521","BEF SELETAR CAMP G",103.871397445601,1.40232762451429,521,1
"522","TEMASEK POLY EAST G",103.936691370375,1.34502101753082,522,1
"523","AFT CH OF OUR SAVIOUR",103.803731351195,1.29801160200783,523,1
"524","BLK 73",103.817750556619,1.28820652868567,524,1
"525","PAN TECH IND CPLX",103.750463063144,1.31183926045325,525,1
"526","OPP PASIR RIS STN EXIT A",103.950844701961,1.37259896682708,526,1
"527","OPP BLK 991B",103.8825611155,1.38310386744392,527,1
"528","BLK 414",103.929606012495,1.33029529657658,528,1
"529","BEF TAI HOE HOTEL",103.857329091319,1.30967431094554,529,1
"530","BUANGKOK SPORTS PK",103.879427467521,1.38214170659056,530,1
"531","BEF MUSLIM CEMY PATH 7",103.693918794891,1.36872022220405,531,1
"532","RIVER VALLEY HIGH SCH",103.708636074392,1.34495674234663,532,1
"533","Blk 662A",103.702929663066,1.33764960945007,533,1
"534","BLK 207",103.843476682236,1.36577405023639,534,1
"535","BLK 664C",103.703279384181,1.33800082903511,535,1
"536","DUNMAN VIEW",103.896664449282,1.30965702131622,536,1
"537","AMK POLICE DIV HQ",103.844496373177,1.38423842303153,537,1
"538","KOLAM AYER IND EST",103.870397174867,1.32707714566668,538,1
"539","OPP BLK 231",103.859884864379,1.33760106902797,539,1
"540","AFT CARGO BLDG D",103.99815690671,1.38135449065979,540,1
"541","AFT TRACK 18",103.73379170893,1.35028645861394,541,1
"542","OPP BLK 227",103.735410862188,1.34205087050318,542,1
"543","OPP BLK 896B",103.79239743762,1.43760347308481,543,1
"544","OPP BLK 116",103.772597877006,1.32380216166337,544,1
"545","OASIS STN / EXIT A",103.912599094936,1.40251967233382,545,1
"546","AFT TRACK 22",103.730428265513,1.35310912842914,546,1
"547","BLK 685B",103.70380311972,1.34264730613175,547,1
"548","CHUNG HWA FREE CLINIC",103.851436273124,1.33295297870825,548,1
"549","BLK 671 CP",103.840984583368,1.41897719981443,549,1
"550","OPP CHINESE GDN STN",103.733213384938,1.34252944513471,550,1
"551","OPP CENCON BLDG",103.87718180489,1.33080219933455,551,1
"552","MERDIAN STN EXIT B",103.908653444435,1.39732366372127,552,1
"553","NGEE ANN SEC SCH",103.957497115696,1.35384749675382,553,1
"554","BEF CHIA PING RD",103.718082065736,1.32752638007386,554,1
"555","OPP DUNEARN SEC SCH",103.743417888472,1.36454068907147,555,1
"556","BLK 237",103.947121592119,1.35532233627732,556,1
"557","BEF BOON LAY WAY",103.709566527398,1.33876178115966,557,1
"558","HOUGANG G. SHOP MALL",103.888133311147,1.37982319308673,558,1
"559","OPP SCI PK 2 / THE GALEN",103.785088095919,1.28705956457485,559,1
"560","BLK 618",103.796458045385,1.43347392196454,560,1
"561","AFT GUL LANE",103.659919423281,1.31529152976707,561,1
"562","BEF TG KATONG RD",103.896033735515,1.30175978386398,562,1
"563","BLK 586",103.853491729607,1.36998298538207,563,1
"564","ANG MO KIO PR SCH",103.83982996056,1.36961137644726,564,1
"565","TEEN CHALLENGE",103.699971685392,1.372380004618,565,1
"566","BEF BEACH RD",103.855598139445,1.29739508638646,566,1
"567","BEF CARGO BLDG D",103.997906170388,1.38140724954501,567,1
"568","OPP BLK 367",103.845540906512,1.43024370555474,568,1
"569","SATS CARGO TER",103.994393394509,1.37352220040056,569,1
"570","OPP REGENT PK",103.762345628719,1.31722382516268,570,1
"571","BLK 154",103.835090333372,1.43172333375501,571,1
"572","AFT JURONG PORT RD",103.718328546098,1.3143705298143,572,1
"573","EXCELSIOR GDNS",103.952318490783,1.3250188657064,573,1
"574","BEF TUAS AVE 13",103.63605481783,1.32471369888115,574,1
"575","OPP SMRT BUSES AMK DEPOT",103.846208377761,1.38780025430349,575,1
"576","BLK 206",103.748321749509,1.38047446864505,576,1
"577","BLK 317",103.764092679261,1.31781852923458,577,1
"578","OPP BLK 66",103.887980933855,1.32720460434042,578,1
"579","BEF JLN KHAIRUDDIN",103.922046481834,1.31922640085349,579,1
"580","TEACHERS' HOUSING EST",103.829452359211,1.37885093173157,580,1
"581","TANAH MERAH FERRY TER",103.988928154553,1.31520792967078,581,1
"582","OPP BISHAN PK",103.851248488112,1.35830686202988,582,1
"583","BLK 546",103.926231761058,1.3305583694731,583,1
"584","OPP S'PORE SCIENCE CTR",103.737037517241,1.33412397665531,584,1
"585","TOYOCHEM INK",103.655137684832,1.32732091125572,585,1
"586","NAUNG RESIDENCE",103.892800272474,1.36762966750899,586,1
"587","OPP BLK 102",103.850995506144,1.32805976386151,587,1
"588","BLK 291A",103.897458806985,1.39547608313745,588,1
"589","OPP PARC OASIS",103.734386628723,1.34438492510159,589,1
"590","BLK 41",103.741738270111,1.32180773266079,590,1
"591","OPP BLK 140",103.830120179475,1.27853827515735,591,1
"592","PARKWAY PARADE",103.905848260813,1.30296798458049,592,1
"593","SUMANG STN EXIT B",103.898747921514,1.4084700627893,593,1
"594","BEF BENOI RD",103.678318733159,1.32057789185123,594,1
"595","BLK 516",103.873347875356,1.37093084920187,595,1
"596","TOA PAYOH POLYCLINIC",103.858555036589,1.33522257751902,596,1
"597","AFT SENGKANG EAST AVE",103.89121017061,1.38570078310841,597,1
"598","HOUGANG 1",103.87910220187,1.37515516795535,598,1
"599","OPP BLK 716",103.924968666229,1.33832844500699,599,1
"600","SUMANG STN EXIT A",103.898367042609,1.40839972521505,600,1
"601","BLK 430",103.950282194131,1.3599697343365,601,1
"602","OPP NCS HUB",103.843644556864,1.38949586466568,602,1
"603","CLIVEDEN AT GRANGE",103.826648792038,1.29927891729993,603,1
"604","OPP NAVAL BASE PR SCH",103.839516876175,1.41548596566113,604,1
"605","CHANGI BEACH CP 4",103.995206049264,1.38992427864198,605,1
"606","AFT LIM CHU KANG LANE 4",103.70771225978,1.43251812617858,606,1
"607","NATL LEADERSHIP INST",103.787894988384,1.28301943528485,607,1
"608","S'PORE POWER TRG INST",103.869420937109,1.34244217069171,608,1
"609","JURONG PORT WORKSHOPS",103.719878462862,1.31556562540788,609,1
"610","OPP GLENDALE PK CONDO",103.764910253775,1.36368778280815,610,1
"611","PRINCESS E PR SCH",103.74131727906,1.3497280287116,611,1
"612","AFT WELLINGTON RD",103.828814471396,1.45867796142219,612,1
"613","OPP STAMFORD PR SCH",103.858617695971,1.3034756787697,613,1
"614","AFT BEDOK IND PK E",103.944020468339,1.33657772032584,614,1
"615","BEF W'LANDS RD",103.757982490173,1.41156673075008,615,1
"616","SRI ARASAKESARI SIVAN TP",103.755355672338,1.4059837268029,616,1
"617","OPP OPERA EST PR SCH",103.92346227764,1.31899340736747,617,1
"618","ST ANDREW'S CATH",103.851215687176,1.29168202551689,618,1
"619","BEF SENOKO CRES",103.806032987647,1.46460296443498,619,1
"620","BEF BLKS 13/14",103.756142082394,1.37864314162007,620,1
"621","CHINESE GDN STN",103.732811542611,1.3424297133228,621,1
"622","BLK 296A",103.740857086582,1.3767506589098,622,1
"623","OPP CASTLE GREEN",103.842622385602,1.38568528629334,623,1
"624","OPP CHANGI GOLF CLUB",103.984311442554,1.39156842491769,624,1
"625","BLK 130",103.955264062553,1.34638161821311,625,1
"626","OPP TRAFFIC POLICE",103.891032205655,1.33071689318682,626,1
"627","AFT JLN BATALONG",103.964457381013,1.36186477554895,627,1
"628","GIVAUDAN S'PORE",103.80107653371,1.45486352431151,628,1
"629","BT PANJANG PLAZA",103.76394326056,1.38001915150819,629,1
"630","BEF KRANJI CRES",103.748652629595,1.43396739055651,630,1
"631","OPP HENRY PK",103.782399698991,1.31572405352379,631,1
"632","OPP S'PORE DISCOVERY CTR",103.67826538623,1.33010596483851,632,1
"633","BLK 370",103.9593917236,1.35828287571062,633,1
"634","BEF ORCHARD STN EXIT B",103.832341828329,1.30256471214973,634,1
"635","AFT JLN BUROH",103.719573048172,1.31524272403172,635,1
"636","OPP MAS BLDG",103.846906864629,1.27415409866526,636,1
"637","HILLVIEW HSE",103.761501384695,1.35735096505659,637,1
"638","AFT AN-NAEEM MQUE",103.891325583133,1.36115454419561,638,1
"639","CHANGI BEACH CP 2",103.991060651769,1.39113249282732,639,1
"640","BLK 261",103.872690931433,1.35382456848566,640,1
"641","JURONG CAMP",103.690762385482,1.33426125542693,641,1
"642","HEMSLEY AVE",103.865669778465,1.36885977307619,642,1
"643","OPP POLICE DRV CIRCUIT",103.825927555412,1.45913117640179,643,1
"644","OPP BLK 242",103.756485999885,1.35139970052616,644,1
"645","AFT TUAS AVE 7",103.645202022563,1.33445538318444,645,1
"646","OPP GAMBIR RIDGE",103.875079101199,1.34364512597101,646,1
"647","BLK 203",103.896196097721,1.38694349140563,647,1
"648","OPP THE RITZ-CARLTON",103.860972584719,1.29077987169341,648,1
"649","OPP BLK 161",103.720981253646,1.33006669274931,649,1
"650","AFT WOODLANDS IND PK E4",103.795683716634,1.45455550543705,650,1
"651","OPP PARKVIEW APTS",103.759095078346,1.34157086175019,651,1
"652","AFT THIRD LOK YANG RD",103.69069374527,1.32467346568763,652,1
"653","AFT JLN SAMULUN",103.696601724815,1.3088328289118,653,1
"654","BLK 288E",103.744032665622,1.34042782319645,654,1
"655","OPP ASSYAKIRIN MQUE",103.719450012,1.33469704858758,655,1
"656","OPP AUCKLAND RD WEST",103.827813631575,1.45908020467082,656,1
"657","BLK 254",103.951764321883,1.34189295496777,657,1
"658","BLK 508 CP",103.819911835985,1.45280710378273,658,1
"659","ONE-NORTH STN",103.786783908379,1.29890282560648,659,1
"660","BEDOK REFORM TRG CTR",103.936737937339,1.34065848324595,660,1
"661","COUNTRYSIDE GDN P/G",103.838632881367,1.38981933344591,661,1
"662","BEF PUNGGOL CTRL",103.918123043061,1.39702786653498,662,1
"663","MULTISTATES TRADING",103.754110720992,1.40086728534893,663,1
"664","AFT BISHAN RD",103.843575802543,1.34397126421016,664,1
"665","HAWAII TWR",103.890505687678,1.29710580571654,665,1
"666","AFT PUNGGOL CTRL",103.917568557821,1.39680088489401,666,1
"667","BLK 681",103.885231178741,1.37346816170361,667,1
"668","BLK 880",103.931536845487,1.35106767421441,668,1
"669","AFT JURONG MARINE BASE",103.686266767413,1.30370123461614,669,1
"670","MARYMOUNT VIEW",103.840508818221,1.35273272778529,670,1
"671","BLK 403",103.934434823269,1.33013716636883,671,1
"672","YEW TEE STN",103.74756177544,1.39740092568452,672,1
"673","AFT JLN BERSERI",103.703190602866,1.37224317717236,673,1
"674","CP 7",103.678582603535,1.35074813322955,674,1
"675","OPP DIEPPE BARRACKS",103.824586704832,1.41886017346755,675,1
"676","BLK 319",103.762704862096,1.37077009493309,676,1
"677","DELTA SPORTS HALL",103.82037652756,1.2909268377049,677,1
"678","AFT PETIR STN",103.767323755093,1.37727663652051,678,1
"679","MAPLETREE LOGISTICS HUB",103.689228386371,1.3178922352172,679,1
"680","BLK 643",103.695776248794,1.3385177132247,680,1
"681","OPP HENG MUI KENG TERR",103.773471299952,1.29056858073425,681,1
"682","EUNOS INT",103.901736661091,1.31939232858779,682,1
"683","OPP LUTHERAN TWRS",103.812466013522,1.32081229497261,683,1
"684","OPP BLK 590C",103.827024559213,1.44917028278454,684,1
"685","SLF CPLX",103.837990015719,1.33379029379066,685,1
"686","OPP YEO'S BLDG",103.806424898376,1.27146713325929,686,1
"687","BLK 786A CP",103.799726390907,1.44585282176179,687,1
"688","OPP SIGLAP STH CC",103.931628070775,1.31401920549049,688,1
"689","BLK 291E",103.75438360195,1.3434805041459,689,1
"690","S'PORE TPT PTE LTD",103.683184599822,1.31952618572914,690,1
"691","BLK 334",103.769080812012,1.31522338837074,691,1
"692","BLK 745",103.922035470842,1.33736695017617,692,1
"693","BLK 257",103.839519617655,1.43429926701961,693,1
"694","BLK 680C",103.706207995893,1.34517374010979,694,1
"695","LIAN AIK SIONG MACHINERY",103.803055098349,1.46358672895919,695,1
"696","OPP BLK 271 CP",103.703831098386,1.3491659228115,696,1
"697","BLK 740",103.936094239968,1.37842561598766,697,1
"698","OPP HEMPEL",103.642570089686,1.32449306827826,698,1
"699","SIMEI STN",103.953458235746,1.34232945104289,699,1
"700","AFT JURONG PIER RD",103.708092224954,1.31394904818263,700,1
"701","NAN HUA PR SCH",103.762170344449,1.31999285964449,701,1
"702","BLK 127",103.769290098094,1.37605559338043,702,1
"703","AFT NANYANG AVE",103.693783311899,1.35993561893256,703,1
"704","OPP THE JAPANESE ASSN",103.81457328987,1.32984405249773,704,1
"705","BEF PENJURU CL",103.734943768898,1.3135953003957,705,1
"706","OPP PASIR PANJANG PO",103.771149752215,1.29126453491567,706,1
"707","BLK 461",103.860753287636,1.30530803146506,707,1
"708","AFT NEYTHAL RD",103.702568497187,1.32765131705354,708,1
"709","OPP JLN PESAWAT",103.709992263251,1.31863964063712,709,1
"710","OPP OUR TAMPINES HUB",103.941638243514,1.35287181319048,710,1
"711","LAGUNA PK",103.929478204627,1.30958538659389,711,1
"712","EDEN CONDO",103.959826332161,1.35614910486637,712,1
"713","BEF ALL SAINTS CHAPEL",103.795481775259,1.29473341641073,713,1
"714","BLK 203B",103.894705740884,1.3865656035263,714,1
"715","DAMAI STN EXIT A",103.909280993956,1.40493312026838,715,1
"716","OPP BLK 4",103.878408614474,1.33340806024756,716,1
"717","AFT CALDECOTT STN",103.838548329511,1.33782166792415,717,1
"718","WOODSVALE CONDO",103.806274096454,1.44392456333414,718,1
"719","ARMENIAN CH",103.849724974354,1.29320249717966,719,1
"720","BLK 206",103.714822041515,1.34526769111404,720,1
"721","BLK 763",103.834966465992,1.42563744634326,721,1
"722","CHANGI AIRPORT PTB1",103.990639439546,1.36130495529839,722,1
"723","GLOBALFOUNDRIES",103.764567461635,1.43685304541322,723,1
"724","OPP BEDOK MKT PL",103.947312824848,1.33156139325505,724,1
"725","OPP BLK 364",103.72106036035,1.33770469647084,725,1
"726","OPP AYER RAJAH CC",103.747168005804,1.32032595933393,726,1
"727","AFT CHANGI GOLF COURSE",103.985537729549,1.38781158056599,727,1
"728","THOMSON CC",103.835949353728,1.35138411655058,728,1
"729","BEF JURONG TOWN HALL RD",103.744240954677,1.32403148788216,729,1
"730","BLK 679",103.885176045002,1.37122393649404,730,1
"731","OPP CHANGI CHAPEL MUSEUM",103.97373563024,1.36268709392719,731,1
"732","BLK 128",103.843844516187,1.33805304758286,732,1
"733","OPP KHOO TECK PUAT HOSP",103.838757908873,1.42339732672302,733,1
"734","OPP AMK POLICE DIV HQ",103.844425248262,1.384059781586,734,1
"735","KEAT HONG CAMP",103.716977168077,1.37413246620695,735,1
"736","BLK 485",103.771374929789,1.38830819140015,736,1
"737","BLK 555",103.856731287245,1.37168296983196,737,1
"738","AFT TUAS STH AVE 6",103.629746476082,1.30221628938799,738,1
"739","KENTISH GREEN",103.851828489298,1.31594485797101,739,1
"740","OPP BLK 296A",103.740154219589,1.37690484513102,740,1
"741","OPP BLK 316",103.896764174969,1.36435232390042,741,1
"742","PUNGGOL STN / WATERWAY PT",103.901835550963,1.40534943868307,742,1
"743","OPP BLK 7B",103.794746673424,1.30534552235883,743,1
"744","BLK 491",103.725663661062,1.34917579393978,744,1
"745","AFT CTE",103.860151942549,1.37720968213627,745,1
"746","SENG HENG ENGRG",103.669018066735,1.32367292166799,746,1
"747","AFT PUNGGOL CENTRAL",103.903219306877,1.40323067122906,747,1
"748","BARTLEY STN EXIT A",103.879906617086,1.34259774194602,748,1
"749","AFT CAPITAL TWR",103.848222681286,1.27801675791137,749,1
"750","CLP INTL",103.739508783541,1.30645220453454,750,1
"751","NATL SKIN CTR",103.849383768421,1.3193199936699,751,1
"752","OPP YIO CHU KANG STADIUM",103.846908200982,1.38427490962741,752,1
"753","PRUDENTIAL TWR",103.849952256006,1.28249690223529,753,1
"754","HQ 6 DIV",103.657340385305,1.30092385588232,754,1
"755","OPP BLK 117",103.722400260177,1.33480583081721,755,1
"756","OPP JLN KEMUNING",103.825262048507,1.43812191901427,756,1
"757","AFT KRETA AYER RD",103.842661957262,1.27969208143211,757,1
"758","YIO CHU KANG STADIUM",103.846722962236,1.38410626665314,758,1
"759","OPP BLK 116",103.820628232548,1.28492571251574,759,1
"760","BLK 50",103.796885610883,1.30090577273935,760,1
"761","AFT W'LANDS MART",103.797542394064,1.44652349579312,761,1
"762","THE ESPLANADE",103.856436883444,1.28993385689437,762,1
"763","OPP CENDEX CTR",103.823885852154,1.28030332678189,763,1
"764","S'GOON SEC SCH",103.90125574897,1.37521984441907,764,1
"765","JB SENTRAL",103.764759811031,1.46098033970372,765,1
"766","KADALOOR STN EXIT B",103.916637190816,1.39933556535933,766,1
"767","BEF HOUGANG POLYCLINIC",103.889277334032,1.3700277142743,767,1
"768","GUANGYANG SEC SCH",103.850488216866,1.34538292905246,768,1
"769","OPP KENT RIDGE SEC SCH",103.766091902863,1.30145258117572,769,1
"770","OPP TAMPINES DORMITORY",103.931042087018,1.36718123800809,770,1
"771","BLK 7 IND EST",103.839098268577,1.35842841062074,771,1
"772","AIR FORCE MUSEUM",103.898922215026,1.34602096690765,772,1
"773","BEF TOMLINSON RD",103.826846120526,1.30384727583833,773,1
"774","BLK 67",103.809409867671,1.27429223221763,774,1
"775","AFT TOA PAYOH RISE",103.837437211011,1.33717343308076,775,1
"776","PRATT & WHITNEY CANADA",103.973392624756,1.38024849509457,776,1
"777","HOUGANG CTRL INT",103.892049059239,1.37094497445606,777,1
"778","OPP SHAW TWRS",103.856506238436,1.29698352072839,778,1
"779","SIXTH AVE VILLE",103.795118957118,1.33007544694548,779,1
"780","OPP BLK 755",103.701033286468,1.34749245376479,780,1
"781","BLK 258",103.758976104423,1.3515399259059,781,1
"782","BLK 354",103.818151095174,1.45010534152899,782,1
"783","TELETECH PK",103.782701170839,1.28692058862078,783,1
"784","OPP BLK 291A",103.89736010537,1.39524692194162,784,1
"785","OPP SELETAR HILL EST",103.873073375365,1.38738929638858,785,1
"786","OPP BLK 722",103.828173926251,1.42514962904924,786,1
"787","AFT CLEMENTI SWIM CPLX",103.765890897117,1.30902124259564,787,1
"788","BLK 819",103.937048512871,1.34859324055741,788,1
"789","OPP VICTORIA SCH",103.929441538064,1.30985606488145,789,1
"790","DAMAI STN EXIT B",103.909304059569,1.4045847395552,790,1
"791","THE INTERLACE",103.80347037857,1.28141077223187,791,1
"792","OPERA EST PR SCH",103.924304610399,1.31904122277472,792,1
"793","SUNSHINE PL",103.738481010407,1.37809141961391,793,1
"794","QUEENSWAY SEC SCH",103.80191822885,1.30109759964757,794,1
"795","AFT TPE",103.915975152931,1.37951779330413,795,1
"796","OPP BISHAN STADIUM",103.851756834515,1.35290846664123,796,1
"797","SEVENTH-DAY ADVENT CH",103.738854348514,1.33581996427936,797,1
"798","KENT RIDGE TER",103.769845803379,1.29417843509549,798,1
"799","BLK 59",103.852210075649,1.33702055841086,799,1
"800","BEF TIONG BAHRU RD",103.822085687134,1.2868097547075,800,1
"801","EASTERN LAGOON II",103.933839261964,1.31288509603039,801,1
"802","NISSIN TPT",103.64350764689,1.32941180702503,802,1
"803","BET BLKS 210/211",103.887659827626,1.35899587204036,803,1
"804","KEPPEL OFFSHORE & MARINE",103.692366751595,1.30534939211262,804,1
"805","AFT KALLANG WAY 2",103.876727124939,1.32229770523269,805,1
"806","BLK 3",103.787343588685,1.31186586114754,806,1
"807","BEF KIAN TECK RD",103.689254832205,1.33166372634704,807,1
"808","BLK 662D",103.704756815353,1.33728178201663,808,1
"809","OPP BLK 333",103.851096770291,1.36109101716606,809,1
"810","BLK 423",103.947845495962,1.35688060018749,810,1
"811","BEF JLN PARI BURONG",103.947264049214,1.33296326541832,811,1
"812","BLK 34",103.853875813747,1.33494436196473,812,1
"813","BLK 142A",103.905263804712,1.38946580507002,813,1
"814","TUAS LK STN",103.637507407829,1.34211053413679,814,1
"815","SING IND CPLX",103.864663005215,1.3757404972704,815,1
"816","BLK 3A",103.899124835011,1.31703859935359,816,1
"817","AFT JLN KEMUNING",103.825621344864,1.43792877165839,817,1
"818","MARSILING CC",103.772443665301,1.44102021524991,818,1
"819","ELIAS MALL",103.941522937378,1.37837012091505,819,1
"820","OPP ESAB",103.666988709144,1.32499611672419,820,1
"821","OPP THE RIVERVALE",103.897198587829,1.38153093405866,821,1
"822","BEF HONG KAH CIRCLE",103.721415768731,1.35585845422424,822,1
"823","Hillington Green Condo",103.764266068727,1.36033302266003,823,1
"824","BLK 412",103.895205583148,1.37476192345143,824,1
"825","THE SAIL",103.853089861076,1.28161180301166,825,1
"826","THE HOLY FAMILY CH",103.906393773023,1.3068273919775,826,1
"827","SIM HQ",103.776840259679,1.32862088098269,827,1
"828","BEF SHIPYARD RD",103.697462914434,1.31006484337404,828,1
"829","DOWNTOWN STN",103.852701237927,1.27939599515196,829,1
"830","OPP KRANJI WAR MEMORIAL",103.755669112356,1.42172687048377,830,1
"831","OPP BLK 953",103.876847419709,1.37606492275757,831,1
"832","AFT SEMBAWANG AIR BASE",103.82338041366,1.41532463565127,832,1
"833","BLK 322",103.847123598316,1.36875053083961,833,1
"834","AFT OCEAN TANKER",103.649788226774,1.30793780448933,834,1
"835","SELETAR HILLS EST",103.872920832043,1.38706010511029,835,1
"836","BLK 665",103.883478305494,1.37444024853552,836,1
"837","OPP THE HOLY TRINITY CH",103.949359581969,1.34956364391316,837,1
"838","CISCO CTR",103.891536482587,1.32103909153037,838,1
"839","BEF WALLACE WAY",103.822484410212,1.34029022232717,839,1
"840","DBS ASIA HUB",103.965301287485,1.33215877291346,840,1
"841","Blk 161",103.878642455276,1.35173338501855,841,1
"842","BLK 35",103.742779432636,1.31920162515016,842,1
"843","COUNTRY PK",103.954632311415,1.32192751752815,843,1
"844","BUONA VISTA TER",103.7919271856,1.30913950794801,844,1
"845","BLK 128",103.903216052094,1.39051282859182,845,1
"846","JLN KAYU SHOPHSE",103.873074095523,1.39707264348744,846,1
"847","JIEMIN PR SCH",103.830609606563,1.42829400508173,847,1
"848","BLK 216",103.960478247144,1.36897908294913,848,1
"849","BEF TOH CL",103.970394744616,1.36332211151065,849,1
"850","BISHAN STADIUM",103.851194049057,1.35335527412599,850,1
"851","BLK 240",103.897783044129,1.39094706686835,851,1
"852","AFT ANGLO-CHINESE JC",103.787926849216,1.30422646109937,852,1
"853","OPP BLK 110",103.899656890319,1.38406908661728,853,1
"854","WESTWOOD SEC SCH",103.700910404682,1.35305806899882,854,1
"855","BLK 173",103.777596201497,1.43241153518811,855,1
"856","OUR TAMPINES HUB",103.941391381457,1.3527305256792,856,1
"857","S'PORE POLY",103.78210879988,1.30749075418125,857,1
"858","NTH SPRING PRI SCH",103.904207074512,1.38720201381231,858,1
"859","OPP LOR 39 GEYLANG",103.890878417394,1.31474358075892,859,1
"860","FULLERTON SQ",103.853368043979,1.2857049446498,860,1
"861","AFT WALLACE WAY",103.822360980207,1.34056216777056,861,1
"862","BEF SEKOLAH INDONESIA",103.924836008709,1.31134155238819,862,1
"863","BLK 121",103.846544152739,1.33919285657315,863,1
"864","THANGGAM STN",103.875728106789,1.39673227714146,864,1
"865","OPP SBST BT BATOK DEPOT",103.75462536439,1.34133095174967,865,1
"866","BEDOK STN EXIT B",103.930133737321,1.32429039569449,866,1
"867","AFT ENG KONG PL",103.767151539242,1.3371449366446,867,1
"868","TEMASEK JC",103.93581639214,1.31962087641495,868,1
"869","OPP BLK 257",103.871992920391,1.35586400425811,869,1
"870","OPP BLK 479",103.958066013491,1.3756685276931,870,1
"871","OPP PENDING STN",103.771035335647,1.3763595305289,871,1
"872","SELETAR AIRPOT",103.873034142318,1.41401883271101,872,1
"873","BEF W'LANDS STN EXIT 7",103.787986472425,1.433554182189,873,1
"874","AFT MENG SUAN RD",103.814440974122,1.40241830787616,874,1
"875","HOLIDAY INN ATRIUM",103.83371761974,1.28967005062336,875,1
"876","BLK 53",103.919733853775,1.3281054487013,876,1
"877","BLK 51",103.922562724477,1.32854093283666,877,1
"878","AFT CHANGI AIRPORT PTB2",103.984353235305,1.34688420091604,878,1
"879","BEF BRIGHT HILL TP",103.837002234932,1.36283575938842,879,1
"880","LP 36",103.767065578575,1.32812960669174,880,1
"881","BLK 331",103.850915773443,1.36166492541526,881,1
"882","HOTEL MIRAMAR",103.837314187344,1.28872377347827,882,1
"883","BEF TUAS WEST DR",103.640635788215,1.34422959048608,883,1
"884","BLK 564",103.858938136248,1.3692350638869,884,1
"885","BEF CRANWELL RD",103.978440817874,1.38905254982735,885,1
"886","CHANGI AIRPORT PTB4",103.982249156055,1.33891358060938,886,1
"887","OPP COSTA RHU CONDO",103.867320887825,1.29755573499827,887,1
"888","OPP BLK 73",103.851273857253,1.33407558839021,888,1
"889","AFT CHIN BEE RD",103.711374504469,1.33302376380274,889,1
"890","OPP TAMAN JURONG GREENS",103.71776240614,1.33686497273837,890,1
"891","FRANKLIN OFFSHORE",103.752838094837,1.30168952277307,891,1
"892","BLK 477A",103.903524672396,1.37814868629721,892,1
"893","BEF THOMSON FLYOVER",103.83731456244,1.32753254604725,893,1
"894","OPP SIME DARBY",103.710383229532,1.33606504900129,894,1
"895","BEF CHIN BEE RD",103.710974037753,1.33301822270858,895,1
"896","S'PORE BOTANIC GDNS",103.819327405316,1.30694388308622,896,1
"897","HONG LIM PK",103.845782478714,1.28675977661964,897,1
"898","WASEDA S SNR HIGH SCH",103.766883113403,1.29620806406269,898,1
"899","GLENDALE PK CONDO",103.765950634584,1.36222653238912,899,1
"900","OPP SPRINGVALE",103.924994135274,1.3125052056512,900,1
"901","CALTEX STN",103.910885861388,1.308775142393,901,1
"902","ASSYAKIRIN MQUE",103.71953915734,1.33488010120579,902,1
"903","BLK 223D",103.897100537331,1.38906431179437,903,1
"904","BLK 641",103.839987890087,1.37885949259675,904,1
"905","OPP CALTEX STN",103.91069023979,1.30854080517383,905,1
"906","GOLDEN HITS",103.866097419768,1.34933989759116,906,1
"907","ANCHORPOINT",103.805496200306,1.28865245092057,907,1
"908","BLK 309",103.840172009452,1.43224727542149,908,1
"909","BLK 409",103.772845540534,1.42907530457968,909,1
"910","HORIZON RESIDENCES",103.784597315617,1.28114919346349,910,1
"911","BLK 790",103.834309768289,1.41972318278091,911,1
"912","OPP BLK 2",103.806799308658,1.28619164037927,912,1
"913","BLK 417",103.947207928582,1.35858416820652,913,1
"914","OPP PLAZA PARKROYAL",103.860703324317,1.30091705173146,914,1
"915","BLK 717",103.936133485432,1.38278491587058,915,1
"916","HOA NAM BLDG",103.859869528856,1.31279133697309,916,1
"917","BLK 201",103.763513190582,1.3204902981362,917,1
"918","OPP BLKS 34/35",103.742093281949,1.31925253155876,918,1
"919","KADALOOR STN EXIT A",103.916329517922,1.39984653342993,919,1
"920","OPP BLK 156",103.944761218101,1.31807981835666,920,1
"921","BEF OLD TAMPINES RD",103.967658806905,1.36477790936356,921,1
"922","BEF HEAVY VEH PK",103.815147317992,1.45996982865983,922,1
"923","BEF YIO CHU KANG RD",103.840894781876,1.38963467152123,923,1
"924","BLK 137",103.904966020991,1.38938265072147,924,1
"925","MARINA BAY FINANCIAL CTR",103.855060910526,1.28034468590859,925,1
"926","BLK 547",103.92460003894,1.32942535303953,926,1
"927","THE SOVEREIGN",103.89295937945,1.29758029495423,927,1
"928","OPP TEXTILE CTR",103.861061616157,1.3033517232327,928,1
"929","LENTOR FLYOVER",103.834280403803,1.39419899926767,929,1
"930","BEF JLN KAYU",103.87024722841,1.39133601200349,930,1
"931","CHRIST METH CH",103.915940863513,1.30978233449108,931,1
"932","OPP BLK 95",103.801923281314,1.30559595824198,932,1
"933","THE SEAFRONT",103.888699114755,1.29752228515473,933,1
"934","HOTEL ROYAL",103.841598188821,1.31696861146613,934,1
"935","OPP PAYA LEBAR GIRLS' SCH",103.885856629357,1.35202396743783,935,1
"936","THE CLEARWATER CONDO",103.933908541237,1.33805923254676,936,1
"937","C'WEALTH STN EXIT A / D",103.798345598363,1.30208892854229,937,1
"938","OPP CORPORATION PR SCH",103.708305656057,1.35170037538064,938,1
"939","AFT LOYANG WAY",103.97431326747,1.37314316610459,939,1
"940","Opp Khatib Stn",103.833296868735,1.41687996498171,940,1
"941","EVERGREEN GDN",103.935047321226,1.31437038482507,941,1
"942","BEF TELOK BLANGAH HTS",103.815111044254,1.27526781059895,942,1
"943","BLK 55",103.787399536865,1.2947522872416,943,1
"944","AFT CHEN LI PRESBY CH",103.879999453003,1.30990336887024,944,1
"945","AFT TANGLIN CC",103.826277645342,1.32267873644774,945,1
"946","BLK 68",103.870174491476,1.32256575965727,946,1
"947","AFT KOON SENG RD",103.902548633843,1.31079995784367,947,1
"948","BEF CHR COMMUNITY CHAPEL",103.813189895621,1.2699329271159,948,1
"949","THE MIDTOWN",103.895379251651,1.37021974756296,949,1
"950","BLK 79",103.82875442143,1.29061060947531,950,1
"951","LEE WEE NAM LIB",103.680429270078,1.3479011716091,951,1
"952","OPP AI TONG SCH",103.831952192415,1.36136014845622,952,1
"953","CEVA LOGISTICS",103.704722735578,1.31426534761209,953,1
"954","BEF LOR 23 GEYLANG",103.881049149219,1.31490330648023,954,1
"955","OPP KEPPEL SHIPYARD",103.65568845102,1.30271909014511,955,1
"956","OPP BLK 44",103.811627518628,1.28659811868851,956,1
"957","CHANGI GOLF COURSE",103.985658586669,1.38749962878993,957,1
"958","OPP MENG SUAN RD",103.813976836435,1.40219642107554,958,1
"959","BLK 834",103.694099408992,1.34292131280385,959,1
"960","BEF LOR DANAU",103.691549100767,1.35612730516688,960,1
"961","QUEENSTOWN SEC SCH",103.814155075151,1.29408613147383,961,1
"962","BLK 538",103.853151832307,1.37581956422576,962,1
"963","OPP JURONG BIRD PK",103.707146253975,1.3220294463771,963,1
"964","BLK 853",103.793146562336,1.43923096644998,964,1
"965","AFT NUS HIGH SCH",103.76994326686,1.30511749815888,965,1
"966","CITIMAC IND CPLX",103.887317850755,1.33326627185083,966,1
"967","BLK 273B",103.704033154353,1.35145599462872,967,1
"968","S'PORE EPSON IND",103.641515195243,1.33557295004051,968,1
"969","OPP BLK 5043",103.863087038686,1.37328656619536,969,1
"970","BLK 335",103.768220713082,1.31722748651231,970,1
"971","OPP NATL LEADERSHIP INST",103.78780318667,1.28295945077735,971,1
"972","OPP GREAT WORLD CITY",103.830810493337,1.29419079839848,972,1
"973","OPP BLK 527",103.854821254015,1.37206387625822,973,1
"974","RAFFLES TOWN CLUB",103.82571255739,1.32223462481718,974,1
"975","BEF W'LANDS RD",103.756945192189,1.42512619435808,975,1
"976","S'PORE FOOD IND",103.75108093784,1.31498366340152,976,1
"977","BEF PASIR RIS DR 3",103.942795981705,1.38009736595425,977,1
"978","BLK 25",103.755085348138,1.37817667245724,978,1
"979","YISHUN STN",103.835166786606,1.42934809987334,979,1
"980","OPP CHINESE CEMY PATH 11",103.696322178079,1.37761361364341,980,1
"981","OPP NEE SOON HQ 22 SIB",103.822313925931,1.41074475184724,981,1
"982","COMFORT DRIVING CTR",103.898195551008,1.33562684247834,982,1
"983","BEF JLN BAHAR",103.693884161291,1.35689332191422,983,1
"984","SUNTEC TWR THREE",103.859518440839,1.29553065363841,984,1
"985","SATS MAINTENANCE CTR 2",103.971406669602,1.34672638562873,985,1
"986","OPP YISHUN IND PK A",103.834970385252,1.43898831230422,986,1
"987","BEF SULTAN MQUE",103.859588245956,1.30335977351095,987,1
"988","BEF BEDOK RD",103.951387645299,1.32950047884141,988,1
"989","AFT PANDAN VALLEY",103.776446607169,1.32050976708886,989,1
"990","OPP MANDARIN GDNS",103.92628093774,1.30793423774348,990,1
"991","CALVARY ABLY OF GOD CH",103.942927694306,1.31532839650272,991,1
"992","OPP TAN KAH KEE STN",103.807450905196,1.32666148223226,992,1
"993","OPP PASIR RIS ELIAS CC",103.942757810119,1.37900403159108,993,1
"994","OPP BLK 998B",103.880721470826,1.38383234467175,994,1
"995","BLK 122",103.857262374526,1.31859128611081,995,1
"996","OPP QUEENSTOWN SEC SCH",103.813227498528,1.29557047900546,996,1
"997","BEF MET YMCA",103.826063266412,1.31696783049404,997,1
"998","AFT UNITY ST",103.84109701145,1.29244567015843,998,1
"999","BEF FAN YOONG RD",103.702879929165,1.32924513820574,999,1
"1000","BECTON DICKINSON MED",103.657128026499,1.32543679020546,1000,1
"1001","OPP CCK CEMY OFFICE",103.693977900092,1.37395403203929,1001,1
"1002","CCK CEMY OFFICE",103.693439601194,1.37409693201921,1002,1
"1003","OPP BLK 204",103.963313250804,1.3671897475289,1003,1
"1004","KOVAN SPORTS CTR",103.885025167104,1.35753762062811,1004,1
"1005","OPP TG PAGAR DP BLK F5",103.829829117152,1.27050614632156,1005,1
"1006","BLK 101",103.781610225955,1.43534676116776,1006,1
"1007","THE TRILLIUM",103.832060482102,1.29499409510113,1007,1
"1008","STAMFORD CT",103.850235693553,1.29418097046258,1008,1
"1009","THE TESSARINA",103.789890262195,1.33337345353201,1009,1
"1010","SI LING SEC SCH",103.775359850254,1.4453115803751,1010,1
"1011","BLK355",103.769361337301,1.31516256810958,1011,1
"1012","BEF TYERSALL AVE",103.813772655255,1.30663119143328,1012,1
"1013","AFT CRANWELL RD",103.978667797273,1.38944091824676,1013,1
"1014","BEF TUAS STH AVE 7",103.632899692753,1.29573725647199,1014,1
"1015","CLEMENTI STADIUM",103.763617235279,1.31085696672397,1015,1
"1016","OPP SPRINGFIELD SEC SCH",103.929496958524,1.35097881193702,1016,1
"1017","BLK 521",103.927378290042,1.33001524743095,1017,1
"1018","BLK 879B",103.928519509545,1.35157586917192,1018,1
"1019","BLK 676B",103.703873485229,1.34630792367997,1019,1
"1020","OPP BLK 203",103.749735226503,1.38090002196257,1020,1
"1021","BEF FRANKEL TERR",103.914438439213,1.31859443219339,1021,1
"1022","OPP CHONGFU PR SCH",103.840391820704,1.43863486935908,1022,1
"1023","NUH",103.783408886887,1.29633853970619,1023,1
"1024","PORSCHE CTR S'PORE",103.811307477086,1.2908288439758,1024,1
"1025","OPP NUH",103.783201020011,1.29681394117702,1025,1
"1026","OUTRAM PK STN",103.838771297541,1.28156222805612,1026,1
"1027","BLK 442",103.738490972681,1.38088891312364,1027,1
"1028","BLK 63B",103.815053018247,1.28894061219517,1028,1
"1029","ENABLING VILLAGE",103.814038726522,1.28716007817476,1029,1
"1030","OPP BLK 871A",103.931435860529,1.35455153366796,1030,1
"1031","BLK 54",103.813936313481,1.28930880464335,1031,1
"1032","BLK 478",103.816396080568,1.45276660952972,1032,1
"1033","OPP BT BATOK FIRE STN",103.752252929153,1.37398366925945,1033,1
"1034","OPP BLK 275",103.965434316658,1.36434665360058,1034,1
"1035","CLEMENTI INT",103.763108709462,1.31769720825793,1035,1
"1036","ST. THERESA'S CONVENT",103.823035494556,1.27624654225975,1036,1
"1037","OPP BLK 71",103.817252921905,1.28763620293,1037,1
"1038","OPP TEEN CHALLENGE",103.702128786195,1.37254242380905,1038,1
"1039","BLK 72",103.816267394554,1.28754243180905,1039,1
"1040","OPP HUAMIN PR SCH",103.842618298005,1.42636929343502,1040,1
"1041","OPP NG TENG FONG GEN HOSP",103.745522106189,1.33243442936735,1041,1
"1042","AFT JLN ANGGEREK",103.880996241889,1.32768767664635,1042,1
"1043","OPP SML SHIPYARD LTD",103.684697402544,1.30770393810081,1043,1
"1044","BEF CHESTNUT AVE",103.77531902525,1.36783665883368,1044,1
"1045","THE RIVERVALE",103.897502077265,1.38158275945676,1045,1
"1046","BLK 223",103.74492397708,1.38188159080604,1046,1
"1047","BLK 111",103.826316746766,1.28048175952019,1047,1
"1048","OPP W'LANDS AUTO HUB",103.791727892187,1.45260309767122,1048,1
"1049","OPP COUNTRYSIDE EST",103.838753271069,1.39140735953039,1049,1
"1050","BOAT QUAY",103.848290487,1.28719972296074,1050,1
"1051","AFT CLEMENTI AVE 1",103.771549230939,1.30911353505455,1051,1
"1052","OPP SUMITOMO BAKELITE S'PORE",103.805894081182,1.46081181594477,1052,1
"1053","OPP FABER GDN",103.827829284734,1.36333879586148,1053,1
"1054","OPP TENGAH AIR BASE",103.712983420455,1.37310366878015,1054,1
"1055","BLK 454",103.718035447531,1.35082036382653,1055,1
"1056","BLK 579",103.886374662313,1.37940060875322,1056,1
"1057","SMU",103.849089915452,1.2973169009622,1057,1
"1058","HSE NO 90",103.765830548066,1.32511353555501,1058,1
"1059","AFT LOR G TELOK KURAU",103.905907494772,1.31562320419742,1059,1
"1060","AFT SOMMERVILLE RD",103.870819865915,1.34516625121606,1060,1
"1061","STEVENS STN",103.826034070597,1.32014000914468,1061,1
"1062","ST AERO",103.898863469434,1.35057598701204,1062,1
"1063","VIZ HOLLAND",103.802538477338,1.30858132233996,1063,1
"1064","AFT KHEAM HOCK RD",103.820300656431,1.32265826548956,1064,1
"1065","OPP ENV BLDG",103.835877500011,1.31099846946068,1065,1
"1066","HARBOURFRONT INT",103.819114803775,1.26716643681165,1066,1
"1067","OPP MACRITCHIE RESVR",103.836065771603,1.34170802168806,1067,1
"1068","OPP THE PETALS CONDO",103.760092431756,1.35398244107813,1068,1
"1069","OPP EUNOS STN",103.905288351732,1.32111427458025,1069,1
"1070","BEF JLN SAMULUN",103.69691685398,1.30882928300545,1070,1
"1071","BLK 726",103.799270778767,1.44390386698251,1071,1
"1072","BLK 882A",103.933648414148,1.35135056711746,1072,1
"1073","OPP KEPPEL DP BLK 519",103.827183192639,1.27182562254068,1073,1
"1074","CLEMENTI FLYOVER",103.765838020397,1.30810971358447,1074,1
"1075","BOON LAY SHOP CTR",103.713011270141,1.34642212113739,1075,1
"1076","OPP KHATIB CAMP",103.825516995705,1.42507822470435,1076,1
"1077","OPP GRANDLINK SQ",103.892176858143,1.31422151781811,1077,1
"1078","AFT LIM CHU KANG LANE 3",103.705383834932,1.42611089783129,1078,1
"1079","CHANCERY CT",103.836368061445,1.31658553002676,1079,1
"1080","AFT SUNRISE GDNS",103.856249088986,1.39129230639282,1080,1
"1081","OPP VICTORIA JC",103.919555611876,1.30368386760147,1081,1
"1082","AFT BRADDELL RD",103.859960066024,1.34726882393695,1082,1
"1083","AFT PEIRCE RD",103.809463355994,1.3083358470105,1083,1
"1084","BLK 734",103.93413955179,1.3584603915994,1084,1
"1085","DAIYA ENGRG",103.746873804937,1.43666573991537,1085,1
"1086","CTRL SQ",103.843340754096,1.28777628811597,1086,1
"1087","MOM SVCS CTR",103.869542139556,1.32682101771275,1087,1
"1088","ST JOSEPH'S HOME",103.708687782491,1.34968219233221,1088,1
"1089","ANCHOR GREEN PR SCH",103.886315998932,1.39111898462462,1089,1
"1090","BET BLKS 138/144",103.865304952973,1.33298682466321,1090,1
"1091","OPP BLK 333C",103.845710046361,1.43139600931428,1091,1
"1092","AFT QUEEN OF PEACE CH",103.894105515242,1.31270795443136,1092,1
"1093","BLK 210",103.961157976916,1.36675522483266,1093,1
"1094","SIM HUP CO",103.750756275707,1.4200005594903,1094,1
"1095","QUEENSTOWN STN EXIT A / D",103.805700699449,1.29470433640966,1095,1
"1096","DULWICH COLL/ BLK 445",103.737855608134,1.35137622381946,1096,1
"1097","BEF TAMPINES AVE 5",103.930970529429,1.35932580539536,1097,1
"1098","BLK 266",103.744201941202,1.34192572651381,1098,1
"1099","OPP TOWNSVILLE PRI SCH",103.855263883071,1.35928599119764,1099,1
"1100","TRU-MARINE",103.688603128624,1.3182512755956,1100,1
"1101","OPP BLK 322",103.840195548653,1.42878957688271,1101,1
"1102","BISHAN INT",103.849805722699,1.3504682047121,1102,1
"1103","OPP BLK 615",103.884439102514,1.36813205735553,1103,1
"1104","OPP GRANDLUXE",103.715031062816,1.33409879278377,1104,1
"1105","NUS FAC OF ENGRG",103.770154355198,1.30053566239916,1105,1
"1106","AFT ANDREW RD",103.837016932497,1.33634429959547,1106,1
"1107","AFT HORTPARK",103.802022580135,1.28092745215049,1107,1
"1108","OPP MOHD SULTAN RD",103.842341695154,1.29408330071594,1108,1
"1109","BEF JOO CHIAT PL",103.900873961489,1.31316197222852,1109,1
"1110","BEF BRITISH AMERICAN TOBACCO",103.802206023057,1.4576537946449,1110,1
"1111","SHAW TWRS",103.856828606851,1.29694413627232,1111,1
"1112","OPP QUEENSWAY SHOP CTR",103.803284728052,1.28661509533821,1112,1
"1113","OPP GOLDEN HTS",103.865875562427,1.34930755871306,1113,1
"1114","AFT TRACK 22",103.909638159588,1.41629944333972,1114,1
"1115","BLK 77",103.885473456209,1.32833046837239,1115,1
"1116","BEF TUAS STH AVE 5",103.629696895733,1.29694083610263,1116,1
"1117","AFT LYNWOOD GR",103.863504304718,1.34409320106794,1117,1
"1118","OPP TIONG BAHRU STN",103.826540974226,1.28593376200257,1118,1
"1119","OPP JLN BAHAR POWER STN",103.693000369652,1.36296764541958,1119,1
"1120","BLK 864",103.79544947161,1.44096575443488,1120,1
"1121","KRISLITE BLDG",103.970193969556,1.37202082376044,1121,1
"1122","BLK 121",103.865167497189,1.3359968695354,1122,1
"1123","BEF KPE",103.906704437592,1.36321259742872,1123,1
"1124","AFT FRANKEL DR",103.916288774063,1.31736172228524,1124,1
"1125","KEE WEE HUP KEE",103.643686687313,1.33375385203625,1125,1
"1126","SUNTEC TWR TWO",103.859363816388,1.29584172328465,1126,1
"1127","BLK 21",103.892096144786,1.36416549398053,1127,1
"1128","OPP THE CLEARWATER CONDO",103.933931776144,1.33834698911533,1128,1
"1129","AFT TIONG BAHRU RD",103.822549888625,1.28717840205404,1129,1
"1130","BET BLKS 227/228",103.955852305415,1.34225209626167,1130,1
"1131","BLK 202",103.847059807847,1.35459792137568,1131,1
"1132","BLK 309D",103.885730450559,1.39048729724561,1132,1
"1133","BEF SIGLAP DR",103.922175467585,1.31729165334647,1133,1
"1134","PAYA LEBAR STN EXIT D",103.89217599014,1.3164073851236,1134,1
"1135","AFT HEWLETT PACKARD",103.809540147716,1.28174131716983,1135,1
"1136","BLK 25",103.857038349906,1.334123168549,1136,1
"1137","Opp Blk 303",103.82254865242,1.44398111472195,1137,1
"1138","THONG TECK BLDG",103.833018104774,1.30787374765525,1138,1
"1139","CRESCENT GIRLS' SCH",103.815947249495,1.29356026449413,1139,1
"1140","BEF TURNHOUSE RD",103.979803663766,1.39103902656648,1140,1
"1141","BLK 258",103.836501305258,1.37061796963417,1141,1
"1142","OPP BLK 626",103.940703575226,1.38055692716827,1142,1
"1143","OPP BLK 241",103.897428216944,1.39063064430674,1143,1
"1144","OPP BLK 53",103.812845958839,1.28920359939686,1144,1
"1145","SMRT BUSES AMK DEPOT",103.845886461089,1.3885567231636,1145,1
"1146","OPP MT FABER LODGE",103.825667091791,1.26839100658161,1146,1
"1147","BET BLKS 306/307",103.742440469436,1.38504121799057,1147,1
"1148","BEF MARYMOUNT CON SCH",103.839621678451,1.34150334564256,1148,1
"1149","PASIR RIS PR SCH",103.963717843614,1.37311487509898,1149,1
"1150","AFT CRAIG RD",103.843537554711,1.27791057865663,1150,1
"1151","BEF LOYANG AVE",103.967625369324,1.36462751486447,1151,1
"1152","BEF ANG MO KIO IND PK 2A",103.866976108719,1.37703783107153,1152,1
"1153","SBST BEDOK NTH DEPOT",103.94693695467,1.33780040593517,1153,1
"1154","THE AMARA",103.843194785209,1.27481796362382,1154,1
"1155","BLK 454",103.830288503126,1.35931178970215,1155,1
"1156","BLK 209",103.741140856412,1.33832050715965,1156,1
"1157","BLK 376",103.766153171411,1.31820758376696,1157,1
"1158","AFT LP 96",103.699991763269,1.39880028710419,1158,1
"1159","BEF ANG MO KIO AVE 2",103.832261256394,1.36744584049773,1159,1
"1160","AFT GUL ST 3",103.666227948574,1.31956061731894,1160,1
"1161","OPP BLK 1015",103.890209890175,1.31978047261474,1161,1
"1162","MAJU CAMP",103.775642112454,1.32679411986513,1162,1
"1163","BEF AR-RABITAH MQUE",103.820909082326,1.28850964115575,1163,1
"1164","COMPOSITE TECH",103.975893224498,1.37996846459444,1164,1
"1165","BLK 691A CP",103.705546376578,1.34253613747549,1165,1
"1166","CITY PLAZA",103.893245145739,1.31517109184768,1166,1
"1167","BLK 146",103.955941195786,1.34435375945113,1167,1
"1168","OPP S'PORE EPSON IND",103.641801577836,1.33554493741306,1168,1
"1169","THOMSON MED CTR",103.841842565067,1.32570040495719,1169,1
"1170","BLK 700B",103.846220508097,1.36916227937689,1170,1
"1171","BLK 463",103.723622528526,1.35067431177844,1171,1
"1172","PEACH GDN",103.895437136153,1.29839616326367,1172,1
"1173","CABLE SKI PK",103.931255163037,1.30777048609394,1173,1
"1174","AFT SEAGATE",103.87067642018,1.37848190471538,1174,1
"1175","SIS BLDG",103.814506789929,1.29152997145609,1175,1
"1176","HDB CP",103.894341763546,1.33185140106398,1176,1
"1177","BLK 513",103.760423216621,1.30895413672545,1177,1
"1178","AFT JOO SENG RD",103.877817736111,1.33617072322088,1178,1
"1179","AFT TELOK BLANGAH HTS",103.814973164376,1.27569899816011,1179,1
"1180","AFT BARTLEY RD",103.870981351439,1.34191995080163,1180,1
"1181","BLK 333",103.961156666225,1.35370661973264,1181,1
"1182","PANASONIC",103.927838178838,1.32128246543027,1182,1
"1183","EVANGEL FAMILY CH",103.846415261201,1.42659259771134,1183,1
"1184","BLK 324",103.959493800614,1.35221982362783,1184,1
"1185","BEF JLN CHEMPAKA KUNING",103.949134790695,1.32942478520285,1185,1
"1186","OPP JURONG LODGE 1B",103.729170348625,1.35401661883674,1186,1
"1187","THE LEO",103.903842644789,1.33705261490024,1187,1
"1188","OPP S'PORE GIRLS' HOME",103.889951832061,1.34768070018639,1188,1
"1189","TEBAN GDN PO",103.743402657818,1.32124374503145,1189,1
"1190","BLK 1015",103.890106113546,1.31945367397453,1190,1
"1191","EMPIRE TECHNOCENTRE",103.904012384054,1.33670780741839,1191,1
"1192","BOON LAY CC",103.71168707296,1.34835456065133,1192,1
"1193","BLK 773",103.832826050216,1.42297654160631,1193,1
"1194","BLK 413",103.773174995917,1.42759535885809,1194,1
"1195","OPP TANGLIN VIEW",103.817445712384,1.29118924198669,1195,1
"1196","BLK 298",103.905463288606,1.4032548966005,1196,1
"1197","BEF HOW SUN RD",103.881613380169,1.34532343394043,1197,1
"1198","HSE NO. 578",103.787939366994,1.31808582731246,1198,1
"1199","WOODLEIGH STN EXIT B",103.870454712321,1.3384943778852,1199,1
"1200","BLK 303D",103.904854799723,1.40401011942099,1200,1
"1201","OPP BLK 271",103.773969476732,1.37760536871042,1201,1
"1202","BLK 207",103.741701895834,1.33854314915286,1202,1
"1203","BLK 444",103.951167025744,1.35853796671547,1203,1
"1204","OPP BLK 506A",103.875268478357,1.37305189703847,1204,1
"1205","OPP BLK 108",103.956524454394,1.36782023892086,1205,1
"1206","OPP BLK 188",103.710271330012,1.34399904011249,1206,1
"1207","BEF JURONG LODGE 1B",103.730442197177,1.35288767854356,1207,1
"1208","BEF SEVENTH-DAY ADVENT CH",103.739697378395,1.33644772191819,1208,1
"1209","OPP THE MIDTOWN",103.895953145352,1.3703047282905,1209,1
"1210","BEF BISHAN RD",103.842685567154,1.34497941444427,1210,1
"1211","S'GOON STADIUM",103.874561806659,1.35491710617321,1211,1
"1212","BLK 342B",103.845186907386,1.43022888580442,1212,1
"1213","YUHUA SEC SCH",103.723163073605,1.34752065859354,1213,1
"1214","AFT CHONG PANG CC",103.829550895779,1.43145805239435,1214,1
"1215","BEF BT MERAH CTRL",103.81836881559,1.28141653830811,1215,1
"1216","SCH OF CEE",103.678503115435,1.34633462333179,1216,1
"1217","OPP MARANATHA B-P CH",103.981873530324,1.38793318747818,1217,1
"1218","OPP JURONG INSP CTR",103.658704953114,1.31197052341816,1218,1
"1219","AFT LOYANG WAY 1",103.972469476853,1.3740583874219,1219,1
"1220","Blk 483",103.814943989647,1.4558845401188,1220,1
"1221","AFT OLD TAMPINES RD",103.913897858636,1.37686926607998,1221,1
"1222","BEF ZION FULL GOSPEL CH",103.8305342942,1.29795877723021,1222,1
"1223","DELFI ORCHARD",103.828480078904,1.30696579964677,1223,1
"1224","OPP VARCO",103.684023905708,1.3267073863088,1224,1
"1225","DELTA SWIM CPLX",103.81927983803,1.28873732384438,1225,1
"1226","QUEENSTOWN PR SCH",103.807819503425,1.29686540978957,1226,1
"1227","AFT EAST SUSSEX LANE",103.790024518064,1.31474534779091,1227,1
"1228","BEF VICOM",103.967737330855,1.35032943163074,1228,1
"1229","OPP LOR CHUAN STN EXIT B",103.863183622049,1.35148770107748,1229,1
"1230","BLK 354",103.722087140728,1.33925121020377,1230,1
"1231","KIM HOCK CORP PTE LTD",103.752446876784,1.41059193541301,1231,1
"1232","WHYE WAH DEVT & CONSTRN",103.751769842412,1.41336418370932,1232,1
"1233","BEF GUL CIRCLE",103.666693549569,1.3104505996229,1233,1
"1234","PARC OASIS",103.73462337965,1.34397726684236,1234,1
"1235","BT PANJANG STN EXIT A/ LRT",103.762096622104,1.37856843294384,1235,1
"1236","BLK 953",103.877125405209,1.37667901063605,1236,1
"1237","WEE KIM WEE SCH OF C&I",103.679064191904,1.34124290488738,1237,1
"1238","BLK 568",103.889286324014,1.37816731576406,1238,1
"1239","OPP S'PORE TURF CLUB",103.758688599404,1.42405330012896,1239,1
"1240","S'PORE DISCOVERY CTR",103.678704943105,1.33042651906855,1240,1
"1241","BEF PASIR RIS ST 53",103.948081500155,1.37324333347739,1241,1
"1242","SG GEDONG CAMP",103.701214109786,1.417475888914,1242,1
"1243","BLK 535",103.890534031021,1.37634590905397,1243,1
"1244","BLK 114",103.734242443856,1.33944284357369,1244,1
"1245","AFT S'PORE FLYER",103.861796246836,1.28937813803003,1245,1
"1246","SUNTEC CITY",103.857945860182,1.29595321946183,1246,1
"1247","OPP HOTEL ROYAL",103.841441334029,1.31749673109666,1247,1
"1248","AFT SHIPYARD RD",103.683851455381,1.31174780210982,1248,1
"1249","REGENT VILLA",103.790947028444,1.32230985846735,1249,1
"1250","BLK 303",103.736268363745,1.34429098535246,1250,1
"1251","TG PAGAR DP BLK F5",103.830562307907,1.27060597553263,1251,1
"1252","BLK 676 CP",103.841438342464,1.42168967224429,1252,1
"1253","TG KATONG RD STH P/G",103.897368440845,1.30065334184142,1253,1
"1254","BEF LOR 110 CHANGI",103.910100404468,1.31851717256238,1254,1
"1255","BLK 917",103.883936194491,1.37457777901285,1255,1
"1256","BLK 112",103.736570172777,1.33958130630576,1256,1
"1257","DHDECO PTE LTD",103.750728002888,1.41920500123953,1257,1
"1258","TAMAN JURONG GREENS",103.718108937372,1.33682062109387,1258,1
"1259","SPRINGFIELD SEC SCH",103.929545792191,1.35063765031848,1259,1
"1260","AFT LIM CHU KANG LANE 3A",103.706609480865,1.42930487191521,1260,1
"1261","BLK 666",103.840692107519,1.41890060250536,1261,1
"1262","AFT ONE TREE HILL",103.82397702758,1.30025906837753,1262,1
"1263","AFT CORPORATION PL",103.721802613233,1.32434453557471,1263,1
"1264","BLK 570",103.856039720841,1.36947438618804,1264,1
"1265","OPP WEST COAST LINK",103.76341176666,1.29866483978023,1265,1
"1266","AFT BRAS BASAH STN EXIT A",103.851531522322,1.29639499200251,1266,1
"1267","OPP REUTERS",103.788430560935,1.29071115722244,1267,1
"1268","OPP MAPLETREE BIZ CITY",103.798081095935,1.27394464692381,1268,1
"1269","BLK 687",103.88470559633,1.37591510242107,1269,1
"1270","MARINA BAY SANDS THEATRE",103.860649297967,1.28524952630893,1270,1
"1271","METTA WELFARE ASSN",103.957745768203,1.34726691709451,1271,1
"1272","HUP LECK HEAVY EQUIPMENT",103.715618800043,1.32692577643962,1272,1
"1273","HILLVIEW GREEN",103.765071568817,1.35821431684994,1273,1
"1274","TROPICAL FURNITURE LTD",103.748929150353,1.4263861406643,1274,1
"1275","BLK S12",103.777870478594,1.29748445798828,1275,1
"1276","Raya Gdn",103.880929406625,1.34672724423967,1276,1
"1277","GAS SVC INTL",103.751807291575,1.30414828020987,1277,1
"1278","OPP BOTANIC GDNS STN",103.81635178071,1.32335265953519,1278,1
"1279","OPP CROWN ALLIANCE INDUSTRIES",103.751232619807,1.41636336793803,1279,1
"1280","AFT LOR SARHAD",103.786787229393,1.28068190940376,1280,1
"1281","OPP CHOA CHU KANG MKT",103.743106498123,1.37620944898456,1281,1
"1282","OPP BLK 522",103.852145475069,1.37271204954238,1282,1
"1283","OPP GRANDEUR 8",103.846354607568,1.37721681332544,1283,1
"1284","SBST BT BATOK DEPOT",103.755060740571,1.34087585112356,1284,1
"1285","BLK 457",103.771017073557,1.38836334730602,1285,1
"1286","BLK 233",103.868924145357,1.35534424019114,1286,1
"1287","BEF TAGORE RD",103.826087996051,1.38263960927138,1287,1
"1288","OPP DYNASTY GDN II",103.791489297674,1.32328563438316,1288,1
"1289","OPP LEROY-SOMER",103.68560652796,1.32452676585255,1289,1
"1290","BLK 230",103.86975245902,1.35573524324779,1290,1
"1291","UE BIZHUB CTRL",103.846567443999,1.39106846863104,1291,1
"1292","KEW GREEN CONDO",103.951363038647,1.31844752101324,1292,1
"1293","OPP LOYANG WAY 6",103.973425905969,1.38435623406075,1293,1
"1294","OPP BLK 532",103.764830896947,1.38429511153013,1294,1
"1295","OPP SUNTEC CITY",103.856723618862,1.29475834100031,1295,1
"1296","OPP PARKLAND GREEN",103.906225582445,1.30005513551236,1296,1
"1297","SBST ANG MO KIO DEPOT",103.848029877931,1.38706997315041,1297,1
"1298","BLK 117",103.844657083349,1.34014260070492,1298,1
"1299","SEMBAWANG SEC SCH",103.816255437139,1.44501782757853,1299,1
"1300","OPP NOVENA LODGE",103.841877840059,1.32346935451248,1300,1
"1301","OPP SMC MFG",103.647895897428,1.3342280801483,1301,1
"1302","BLK 673C",103.700960961071,1.34488330478553,1302,1
"1303","BLK 114",103.826399660744,1.43427430713268,1303,1
"1304","BLK 229",103.738001609934,1.34208390314653,1304,1
"1305","BEF LOR SERAMBI",103.697740964681,1.38558434003645,1305,1
"1306","THE PETALS CONDO",103.760023537634,1.35303590570163,1306,1
"1307","OPP PSB SCIENCE PK BLDG",103.78668859759,1.29408991394239,1307,1
"1308","OPP DULWICH COLL",103.73763479298,1.35086460327603,1308,1
"1309","OPP BLK 227A",103.892526926786,1.40413510988244,1309,1
"1310","AFT COLDSTREAM AVE",103.919847954168,1.31264543626849,1310,1
"1311","NIBONG STN EXIT B",103.900283460857,1.41129687373654,1311,1
"1312","NIBONG STN EXIT A",103.899999118715,1.41158736778435,1312,1
"1313","YEO'S BLDG",103.806397579326,1.27189801766005,1313,1
"1314","BLK 10",103.776835947516,1.44070063216883,1314,1
"1315","SAMUDERA STN EXIT A",103.902487100298,1.41653047135984,1315,1
"1316","OPP S'PORE POLY",103.781855446346,1.30691999830797,1316,1
"1317","BLK 206",103.773295368633,1.44565950281922,1317,1
"1318","KHOO TECK PUAT HOSP",103.838814045728,1.42379185898632,1318,1
"1319","OPP FAIRFIELD METH CH",103.84386246103,1.27982109077319,1319,1
"1320","YUSOF ISHAK SEC SCH",103.759151268554,1.34232597375248,1320,1
"1321","SAMUDERA STN EXIT B",103.902634020582,1.41618446813165,1321,1
"1322","OPP BLK 25",103.891316285129,1.36627039367504,1322,1
"1323","AFT PUNGGOL PT STN",103.905338240534,1.41723099551038,1323,1
"1324","REGENT GR CONDO",103.749880410637,1.39984192080276,1324,1
"1325","BET BLKS 405/406",103.849472495326,1.4265431186023,1325,1
"1326","BEF PUNGGOL PT STN",103.905153757945,1.41764639120287,1326,1
"1327","OPP NISSIN TPT",103.643181893004,1.32954851916669,1327,1
"1328","NGEE ANN POLY",103.777692614169,1.33252105495253,1328,1
"1329","BLK 81",103.940025168654,1.32853034913627,1329,1
"1330","OPP LIM CHU KANG LANE 3",103.705955894179,1.42766176974343,1330,1
"1331","BEF PASIR RIS WAY",103.946337156559,1.38224021738062,1331,1
"1332","OPP TG RIA CONDO",103.875334482364,1.29660088253139,1332,1
"1333","AFT SMRT BUSES KRANJI DEPOT",103.754933869965,1.43534276546627,1333,1
"1334","BLK 442",103.952328636463,1.35939358016598,1334,1
"1335","NIPPON PAINT",103.692654730243,1.32305179264732,1335,1
"1336","BLK 401A CP",103.769177686293,1.38120690541679,1336,1
"1337","OPP MANDARIN ORCHARD",103.836967461815,1.30235103242148,1337,1
"1338","AFT WINDSOR PK RD",103.828951301153,1.35781760587571,1338,1
"1339","OPP SEMBAWANG PK",103.837561979207,1.46147926521696,1339,1
"1340","AFT PUNGGOL DR",103.908665981412,1.40886746219694,1340,1
"1341","AFT LIM CHU KANG LANE 8",103.707747867632,1.44277520360064,1341,1
"1342","BEF WEYHILL CL",103.794116506842,1.29898368581334,1342,1
"1343","JACKSON SQ",103.848683790651,1.33773875138877,1343,1
"1344","PASIR RIS INT",103.949279743462,1.37396261779361,1344,1
"1345","BT MERAH TOWN CTR",103.817778655625,1.28392817583252,1345,1
"1346","MARINA CTR TER",103.861400840863,1.29138363269889,1346,1
"1347","NOVENA STN",103.843502598201,1.3195407911101,1347,1
"1348","OPP TEMASEK POLY EAST G",103.936036407495,1.34566660685077,1348,1
"1349","AFT TRACK 14",103.725425651808,1.37455053909668,1349,1
"1350","OPP CARLISLE RD",103.847006291008,1.31586984508714,1350,1
"1351","OPP BLK 85",103.938316903957,1.33154800192512,1351,1
"1352","BLK 703",103.919650033445,1.33758867357656,1352,1
"1353","KANGKAR STN EXIT B",103.90212707316,1.38347647047949,1353,1
"1354","S'PORE SWIM CLUB",103.880100315146,1.29763270274027,1354,1
"1355","OPP BT BATOK SWIM CPLX",103.748419994469,1.34526505968522,1355,1
"1356","AFT PIONEER SECTOR 2",103.657725986734,1.30733260648065,1356,1
"1357","OPP BLK 910",103.882652846608,1.37940789058131,1357,1
"1358","OPP PEBBLE BAY",103.872455654976,1.29702536263312,1358,1
"1359","BLK 55",103.834025379633,1.28482522404685,1359,1
"1360","OPP TEMASEK JC",103.935161599516,1.31970533918384,1360,1
"1361","BEF STH BUONA VISTA RD",103.785732793933,1.27933206154239,1361,1
"1362","BLK 203",103.742467087353,1.33648092471522,1362,1
"1363","PROMENADE STN",103.860642668016,1.29333697382648,1363,1
"1364","BLK 114",103.80671716394,1.28203731221425,1364,1
"1365","OPP BLK 639",103.803548279521,1.43790759513199,1365,1
"1366","SIT DOVER",103.778274674208,1.30054987688876,1366,1
"1367","SUNSHINE BAKERY",103.81298456565,1.4641315787544,1367,1
"1368","GLORIA MANSION",103.780239871844,1.2861021046624,1368,1
"1369","GES S'PORE",103.775614189342,1.44532082955022,1369,1
"1370","OPP BLK 604A",103.74554339514,1.39727295272353,1370,1
"1371","BEF GDNS BY THE BAY",103.864102316526,1.27685150999312,1371,1
"1372","AFT MANDAI RD",103.779696325319,1.40939911543314,1372,1
"1373","KOVAN STN EXIT C",103.885428409482,1.36019530890418,1373,1
"1374","BLK 101",103.870325407181,1.37130254677976,1374,1
"1375","OPP THE LINEAR",103.762580303499,1.37440644979798,1375,1
"1376","RESORTS WORLD SENTOSA",103.82403138428,1.25576918587894,1376,1
"1377","BLK 316",103.896915229747,1.3648359826366,1377,1
"1378","BLK 402",103.722368513951,1.35316761868477,1378,1
"1379","AFT DUKU RD",103.903503562954,1.30801030079651,1379,1
"1380","S'PORE INDIAN ASSN",103.855100140897,1.31832869035293,1380,1
"1381","BLK 530",103.872368634218,1.37350242734312,1381,1
"1382","OPP LOYANG WAY 4",103.97587171091,1.37775942943346,1382,1
"1383","AFT SELETAR CAMP",103.872646285657,1.40982050405727,1383,1
"1384","BLK 250",103.842218202376,1.43613202901048,1384,1
"1385","BET BLKS 523/525",103.715778759554,1.34691492822008,1385,1
"1386","PUSARA AMAN MQUE",103.694468891913,1.37231681726589,1386,1
"1387","BLK 28",103.8207682678,1.27336168565655,1387,1
"1388","AFT TRACK 11",103.70097536305,1.40934245912019,1388,1
"1389","UE SQ/BEF MOHD SULTAN RD",103.842707022675,1.29351019974662,1389,1
"1390","TAMPINES CONCOURSE INT",103.941697239565,1.3572663594953,1390,1
"1391","BLK 507",103.850760568411,1.37424676256445,1391,1
"1392","AFT NIRVANA MEMORIAL GDN",103.687364898346,1.36995837527964,1392,1
"1393","OPP S'PORE POLO CLUB",103.838906749236,1.33157783542978,1393,1
"1394","YCH DISTRIPK",103.656416641898,1.31766532595992,1394,1
"1395","OPP TEMASEK POLY WEST G",103.929821871109,1.34843911780995,1395,1
"1396","BEF PASIR RIS DR 3",103.948069709299,1.37481016414717,1396,1
"1397","BLK 315",103.746431337643,1.35989169757485,1397,1
"1398","AFT PASIR RIS DR 3",103.948138167416,1.37453594628607,1398,1
"1399","OPP YIO CHU KANG STN",103.843871879783,1.38151927504178,1399,1
"1400","HOTEL GRAND PACIFIC",103.852554644981,1.29691638509326,1400,1
"1401","LOYANG VALLEY",103.970592988031,1.36951401423884,1401,1
"1402","BLK 483",103.73785917028,1.37622666050896,1402,1
"1403","OPP GREAT WORLD CITY",103.83284656039,1.29359371356348,1403,1
"1404","LIP GUAN IND",103.755216322825,1.43485527015947,1404,1
"1405","AFT SLE",103.828813069224,1.39810864961117,1405,1
"1406","OPP BLK 538",103.853339319481,1.37614167278916,1406,1
"1407","CH OF OUR LADY OF LOURDER",103.855423038834,1.30324000983256,1407,1
"1408","NORTHVALE CONDO",103.745903573858,1.38770991798609,1408,1
"1409","BEF THOMSON RIDGE",103.834277712609,1.35314032927316,1409,1
"1410","BLK 29",103.859382166631,1.32543017527842,1410,1
"1411","OPP BULLION PK",103.836859828716,1.39256871318174,1411,1
"1412","PASIR RIS ELIAS CC",103.9426859158,1.37868970017257,1412,1
"1413","BEF KIM YAM RD",103.839574256317,1.2957741783237,1413,1
"1414","OPP BLK 504",103.847801706503,1.37468672036028,1414,1
"1415","Opp Blk 589",103.79571981658,1.42736235437945,1415,1
"1416","BLK 511A",103.740871764879,1.38849986056116,1416,1
"1417","OPP BLK 469B",103.813587985938,1.44774791957625,1417,1
"1418","BLK 485",103.960973969772,1.37413000047274,1418,1
"1419","OPP BLK 102",103.748288752203,1.34747784892193,1419,1
"1420","BEF DAIRY FARM EST NTH GATE",103.768545461154,1.36492339319179,1420,1
"1421","BLK 115",103.848460043601,1.34815689773904,1421,1
"1422","BLK 429",103.956903917879,1.37003823745004,1422,1
"1423","OPP BLK 632 CP",103.75777178921,1.38464360809599,1423,1
"1424","AFT PANDAN RD",103.74595783459,1.30299611624472,1424,1
"1425","WEST VIEW PRI SCH",103.760694503087,1.38374636386951,1425,1
"1426","BEF JLN BUMBONG",103.754785549511,1.41780734276441,1426,1
"1427","SEAMAP",103.972130002541,1.3477740049073,1427,1
"1428","BLK 610",103.769365779108,1.30480379570261,1428,1
"1429","AFT UPP S'GOON SHOP CTR",103.877944837331,1.35344079138995,1429,1
"1430","OPP JLN TARI LILIN",103.872975176703,1.39849563365748,1430,1
"1431","BLK 701",103.828789427217,1.43016111193817,1431,1
"1432","NANYANG POLY",103.850087345162,1.37648488071301,1432,1
"1433","BLK 71",103.942682452909,1.32069449052269,1433,1
"1434","OPP PUNGGOL 17TH AVE",103.909421636149,1.41423585210634,1434,1
"1435","OPP KIM HOCK CORP PTE LTD",103.752279037069,1.41053065498168,1435,1
"1436","AFT TOH TUCK RISE",103.763573282042,1.33915222352889,1436,1
"1437","BEF TOH TUCK RISE",103.763905679625,1.33940104704,1437,1
"1438","OPP BLK 670",103.747729029778,1.40350166705015,1438,1
"1439","CHRIST CH",103.915996253951,1.33311584855631,1439,1
"1440","BLK 97",103.801739651802,1.3062996058871,1440,1
"1441","AFT 888 PLAZA",103.794132042015,1.43894701809922,1441,1
"1442","OPP JACKSON SQ",103.848270788789,1.33801045693419,1442,1
"1443","BLK 3023",103.897061292792,1.32917260105685,1443,1
"1444","BET BLKS 701/702",103.937176941362,1.35594772689443,1444,1
"1445","OPP BISHAN NTH SHOP MALL",103.845172525618,1.35795159753916,1445,1
"1446","OPP CORPORATION PL",103.719070965158,1.3258898551374,1446,1
"1447","OPP CCK POLYCLINIC",103.751380173872,1.38153693581937,1447,1
"1448","AFT LP 161",103.701853292553,1.40450240382684,1448,1
"1449","BLK 115",103.88837129484,1.35265922434845,1449,1
"1450","OPP KYOCERA CHEMICAL",103.645549760505,1.32747055170659,1450,1
"1451","EXPO HALLS 1/2/3",103.95616957523,1.333212399803,1451,1
"1452","OPP LIM CHU KANG LANE 4",103.707917159108,1.43353183731683,1452,1
"1453","RIVIERA STN EXIT A",103.916069963899,1.39416190557188,1453,1
"1454","BLK 190",103.746130083631,1.34498713901769,1454,1
"1455","PASIR RIS INT",103.949761237679,1.37420253512045,1455,1
"1456","OPP ST. ANDREW'S VILLAGE",103.866362191887,1.32852368975683,1456,1
"1457","OPP JURONG TOWN HALL",103.742928078515,1.3299513389806,1457,1
"1458","BLK 254",103.757938080102,1.34935428101351,1458,1
"1459","BLK 726 CLEMENTI WEST MKT",103.764520047646,1.30423869534358,1459,1
"1460","SANMINA-SCI",103.733720717815,1.30802099288781,1460,1
"1461","AFT FIFTH LOK YANG RD",103.685542640598,1.32763908085002,1461,1
"1462","OPP BLK 13",103.838691153717,1.28606872290935,1462,1
"1463","AFT STEVENS STN",103.825713059078,1.31926362246077,1463,1
"1464","AFT JLN BUMBONG",103.755940327483,1.41335766669938,1464,1
"1465","THE CALROSE",103.836132309111,1.38221634195453,1465,1
"1466","SIMEI GREEN CONDO",103.957070134651,1.34123172470987,1466,1
"1467","AFT TPE",103.932831531747,1.37810334375466,1467,1
"1468","PASIR LABA CAMP",103.673847523146,1.33096823322602,1468,1
"1469","ST. MICHAEL'S TER",103.85578324961,1.32565932242773,1469,1
"1470","OPP SELETAR AIRPORT",103.86389322074,1.4192008399076,1470,1
"1471","VARSITY PK",103.767038742947,1.29385336141135,1471,1
"1472","BLK 88",103.939037871319,1.3332824723012,1472,1
"1473","OPP BLK 793",103.803089564408,1.4418284450786,1473,1
"1474","OPP NATL JC",103.802567770288,1.3289790529655,1474,1
"1475","BLK 421",103.895159368124,1.37508693400333,1475,1
"1476","BLK 220",103.745361232764,1.38181382513986,1476,1
"1477","ST NICHOLAS GIRLS'",103.833215398348,1.37207476456983,1477,1
"1478","OPP TOA PAYOH SWIM CPLX",103.85020361974,1.33114367517036,1478,1
"1479","OPP BLK 233",103.962154143037,1.37513565134875,1479,1
"1480","BLK 206A",103.896290815932,1.38667877169976,1480,1
"1481","OPP CORONATION PLAZA",103.810206107562,1.32475565048288,1481,1
"1482","BLK 969",103.878912448557,1.37889070388054,1482,1
"1483","AFT SENOKO WAY",103.810691748577,1.46643253313884,1483,1
"1484","OPP WEYHILL CL",103.793013839259,1.29988255518908,1484,1
"1485","BLK 109",103.825399308421,1.27413712298952,1485,1
"1486","OPP CHR COMMUNITY CHAPEL",103.81284767139,1.26972276185369,1486,1
"1487","BLK 322",103.905384844831,1.32823635558301,1487,1
"1488","BLK 888",103.930962116897,1.35119807685621,1488,1
"1489","BLK 831",103.934344578496,1.34984227036618,1489,1
"1490","OPP SPRINGLEAF NATURE PK",103.81712390878,1.40022756420268,1490,1
"1491","HOMETEAMNS",103.750630640213,1.3654614466479,1491,1
"1492","TECK GHEE CT",103.847936277999,1.36357997775447,1492,1
"1493","AFT LOYANG WAY",103.971851807749,1.38495579218893,1493,1
"1494","SIGLAP CC / OPP BLK 71",103.943322216374,1.32099741375532,1494,1
"1495","PARKVIEW SQ",103.857201637124,1.3003738917188,1495,1
"1496","AFT LCS OPTIROC PTE LTD",103.750191305949,1.42319684802709,1496,1
"1497","SIT LEY TIMBER",103.75189885669,1.41357577301766,1497,1
"1498","MARSILING PR SCH",103.772573019837,1.4343628397898,1498,1
"1499","BLK 5",103.987222641218,1.38826044078593,1499,1
"1500","BLK 8",103.839779085261,1.28711947392137,1500,1
"1501","TENGAH AIR BASE",103.71428812938,1.37369602158063,1501,1
"1502","BLK 201",103.82714566467,1.28036833445524,1502,1
"1503","OPP ITE COLLEGE CTRL",103.855781000967,1.37564892258713,1503,1
"1504","OPP CALTEX S'PORE",103.74290474585,1.30454795978618,1504,1
"1505","AFT KIAN TECK RD",103.686496520832,1.32951154189363,1505,1
"1506","BEF STILL RD",103.906907955822,1.31431753637307,1506,1
"1507","B20 LIM CHU KANG RD",103.702146345044,1.41916887085619,1507,1
"1508","JURONG WEST SUB-STN",103.702929657629,1.34623472100869,1508,1
"1509","BEF SEAH IM RD",103.816247570177,1.26839634011616,1509,1
"1510","AFT SWAN LAKE AVE",103.925946095689,1.3192949705386,1510,1
"1511","KYOCERA CHEMICAL",103.645263961244,1.32757978190949,1511,1
"1512","OPP NEWTON LIFE CH",103.840585815175,1.31464505672696,1512,1
"1513","OPP SHINGDA CONSTRUCTION",103.75089425941,1.43470904851115,1513,1
"1514","BLK 645",103.842611698264,1.3795263067143,1514,1
"1515","BLK 639",103.697147380872,1.34085899240249,1515,1
"1516","BLK 504A CP",103.875517180743,1.37389119759218,1516,1
"1517","CH OF ST MARY",103.759260095572,1.34665596379624,1517,1
"1518","ANGSANA PR SCH",103.951197062241,1.34880493867627,1518,1
"1519","GRAMERCY PK",103.826757140284,1.29903925202212,1519,1
"1520","BLK 242",103.962189584683,1.371266164853,1520,1
"1521","BLK 666",103.797764325411,1.43948506670049,1521,1
"1522","AFT LENTOR ST",103.83441954738,1.3886665224222,1522,1
"1523","BEF BENOI RD",103.67920354815,1.30980653906825,1523,1
"1524","TG KATONG SEC SCH",103.896555070912,1.30944090680519,1524,1
"1525","BLK 231",103.859719766921,1.33701878941761,1525,1
"1526","AFT BT BATOK RD",103.735827289101,1.34789890272804,1526,1
"1527","BLK 112",103.87191482811,1.36931819096601,1527,1
"1528","AFT ESTORIL MANSIONS",103.801105189796,1.31120525029676,1528,1
"1529","BLK 50",103.810333043815,1.27288418903809,1529,1
"1530","OPP HOUGANG CTRL INT",103.891728341851,1.3714006144172,1530,1
"1531","HARBOURFRONT STN EXIT A",103.820091479867,1.26595829208461,1531,1
"1532","LARKIN TER",103.7431793732,1.49543937779493,1532,1
"1533","BEF KIAN TECK RD",103.688573194301,1.32766358224266,1533,1
"1534","CHANGI AIRPORT PTB3",103.987342656873,1.35602005427561,1534,1
"1535","BLK 1",103.808283539403,1.2863004144149,1535,1
"1536","BLK 664",103.797615246696,1.43605651798193,1536,1
"1537","BLK 94",103.833524665859,1.28812694094501,1537,1
"1538","BLK 592C",103.828464610873,1.45090935322709,1538,1
"1539","OUTRAM PK STN EXIT H",103.840242485487,1.28020660496519,1539,1
"1540","BLK 3",103.838336078005,1.27746288557548,1540,1
"1541","SATS CATERING",103.969967995242,1.34550070724291,1541,1
"1542","BEF TG KLING RD",103.701222849862,1.31361554315432,1542,1
"1543","OPP REGENT VILLA",103.790095541385,1.32125058517882,1543,1
"1544","BLK 138B",103.846057747552,1.33642279340056,1544,1
"1545","MULTICO",103.630237288159,1.28914153015565,1545,1
"1546","BLK 229",103.75454842084,1.34858698322521,1546,1
"1547","MARKONO HOLDINGS",103.698704340653,1.3228401153496,1547,1
"1548","OPP FOUR SEASONS HOTEL",103.828925985499,1.30454453837823,1548,1
"1549","BLK 163",103.947027202442,1.32025996326248,1549,1
"1550","OPP LOGISHUB @ CLEMENTI",103.764334632513,1.32632805847858,1550,1
"1551","OPP BLK 420A",103.768166108037,1.30986960917631,1551,1
"1552","HIAP SENG ENGRG LTD",103.645216753729,1.31543878305675,1552,1
"1553","OPP BLK 187",103.958986572615,1.36457284442218,1553,1
"1554","BLK 42",103.802368848556,1.2985785236668,1554,1
"1555","BEF TAMPINES AVE 9",103.931064368851,1.36250773056604,1555,1
"1556","TIONG GHEE TP",103.804031528349,1.29123925672885,1556,1
"1557","OPP WHITE SANDS PRI SCH",103.961863379179,1.36467945186685,1557,1
"1558","OPP LP 173",103.700058663073,1.41148888506527,1558,1
"1559","BEF TPE",103.913379238721,1.37657196696011,1559,1
"1560","BT VIEW SEC SCH",103.751825904038,1.34650455439018,1560,1
"1561","BKJ 515",103.930132680374,1.33230125062479,1561,1
"1562","OPP JURONG EAST WAREHSE",103.749408213258,1.33665654406231,1562,1
"1563","BLK 474",103.816614476748,1.4505212121012,1563,1
"1564","HILLVIEW APTS",103.761980773158,1.35558693750277,1564,1
"1565","BLK 191",103.712136746682,1.34340430674604,1565,1
"1566","OPP BLK 569",103.948472805308,1.3696930008275,1566,1
"1567","HUA XIN CT",103.93343632368,1.31126731481919,1567,1
"1568","OPP EVERGREEN AVE",103.935767964639,1.31430767015084,1568,1
"1569","MACRITCHIE RESERVOIR",103.836062520242,1.34217738505297,1569,1
"1570","BLK 121",103.829959290554,1.43451248030333,1570,1
"1571","OPP OLD PIER ROAD",103.979234599271,1.38756263610994,1571,1
"1572","BLK 15",103.788310854932,1.30834995948861,1572,1
"1573","AFT OLD PIER RD",103.978366873668,1.3876586633378,1573,1
"1574","OPP BLK 984A",103.881764071274,1.38188132713361,1574,1
"1575","BLK 991B",103.882491613779,1.38346630333677,1575,1
"1576","T5@TAMPINES",103.926572167961,1.37315287997401,1576,1
"1577","BLK 3",103.932385083304,1.32169036711661,1577,1
"1578","BLK 4",103.826141974956,1.2916685077428,1578,1
